,gmap_id,name,address,latitude,longitude,category,avg_rating,num_of_reviews,state,relative_results,Service options,clasificacion,address_depurada,city,county
2,0x80c2c778e3b73d33:0xbdc58662a4a97d49,San Soo Dang,"San Soo Dang, 761 S Vermont Ave, Los Angeles, CA 90005",34.0580917,-118.2921295,Korean restaurant,4.4,18,Open ⋅ Closes 6PM,"0x80c2c78249aba68f:0x35bf16ce61be751d, 0x80c2c79998f75fff:0xd7ca5c67e96fb778, 0x80c2b899146d7507:0xf4162c12c9cf65f8, 0x80c2c77f2d419951:0x26285631b21e324c, 0x80c2b8add9016015:0x15836f81a963b35f","Takeout, Dine-in, Delivery",Dining Venue,761 S Vermont Ave,Los Angeles,Los Angeles
6,0x80dd2b4c8555edb7:0xfc33d65c4bdbef42,Vons Chicken,"Vons Chicken, 12740 La Mirada Blvd, La Mirada, CA 90638",33.9164023,-118.010855,Restaurant,4.5,18,Open ⋅ Closes 9:30PM,Sin resultados vinculados,"Outdoor seating, Curbside pickup, No-contact delivery, Delivery, Takeout, Dine-in",Dining Venue,12740 La Mirada Blvd,La Mirada,Los Angeles
761,0x80c2baf50d29bf63:0x5bd904b842b9fcc,La Potranca,"La Potranca, 12821 Venice Blvd., Los Angeles, CA 90066",34.0001808,-118.4412489,Restaurant,4.2,13,Closed ⋅ Opens 10AM,"0x80c2bac345536273:0x8b015c3512788465, 0x80c2cca7f8b96e41:0x38e7a59fe1a2544a, 0x80c2bbe711441989:0x1265980635972b08","Dine-in, Delivery",Dining Venue,12821 Venice Blvd.,Los Angeles,Los Angeles
1426,0x80dc976f028eb61d:0x1a5ed32889a67122,Circle K,"Circle K, 16331 Lakeshore Dr, Lake Elsinore, CA 92530",33.6898618,-117.3761513,"Convenience store, ATM, Coffee shop, Coffee store, Public bathroom, Snack bar, Soft drinks shop",3.5,24,Open 24 hours,"0x80dc99d523c8983b:0x5bcf75a72567785e, 0x80dc9987b7c81be7:0x9de20147825c505f, 0x80dc99bfce7c6659:0xbf01089552971200, 0x80dc9bc438c0455b:0x5b9e20ad0f11a91d, 0x80dc9760a794c19d:0x862f9be360863337","In-store shopping, Delivery",Café & Coffee,16331 Lakeshore Dr,Lake Elsinore,Riverside
1548,0x80c2d765f8c90a3d:0x16afb75943e7ad50,Cowboy Burgers & BBQ,"Cowboy Burgers & BBQ, 13101 Ramona Blvd, Baldwin Park, CA 91706",34.0799951,-117.9889514,"Hamburger restaurant, American restaurant, Barbecue restaurant, Fast food restaurant, Mexican restaurant, Sandwich shop",3.7,38,Closed ⋅ Opens 6AM,"0x80c2d765f8dd4ebf:0xb6baf31e3e536ffa, 0x80c2d785ff133c4f:0xb557bd748da8bdc8, 0x80c2d7858a9165d1:0x746e2deaa15d9ccf, 0x80c2d7921f07343b:0x1c04d13593fea4b8, 0x80c2d7a31187e5cf:0x9deee1cc6e4e46ba","Drive-through, Takeout, Dine-in, Delivery",Dining Venue,13101 Ramona Blvd,Baldwin Park,Los Angeles
2237,0x54d15b5c2681df95:0xa611357b2e497e58,Beau Pre Cafe,"Beau Pre Cafe, 1777 Norton Rd, McKinleyville, CA 95519",40.9629139,-124.0962378,"Cafe, Breakfast restaurant, Hamburger restaurant, Lunch restaurant",4.6,18,Closed ⋅ Opens 9AM,Sin resultados vinculados,"Outdoor seating, Takeout, Dine-in, Delivery",Dining Venue,1777 Norton Rd,McKinleyville,Humboldt
2750,0x80dc736926023cb9:0xb3377acd90a46f16,Chin's Szechwan - Carlsbad,"Chin's Szechwan - Carlsbad, 2820 Roosevelt St, Carlsbad, CA 92008",33.1623625,-117.3491095,"Chinese restaurant, Asian fusion restaurant, Chinese noodle restaurant, Dumpling restaurant, Soup restaurant",4.8,48,Closed ⋅ Opens 11:30AM Thu,Sin resultados vinculados,"Curbside pickup, No-contact delivery, Delivery, Takeout, Dine-in",Dining Venue,2820 Roosevelt St,Carlsbad,San Diego
3675,0x8085875ce042646d:0xd289103cd80a0a97,Hotei Restaurant,"Hotei Restaurant, 1290 9th Ave, San Francisco, CA 94122",37.764405,-122.466102,Restaurant,3.5,28,None,0x8085875da35c9f8d:0x3a58fad2decd578f,Delivery,Dining Venue,1290 9th Ave,San Francisco,San Francisco
3676,0x808f7fd770b93dfd:0x9163bc5a8883c63b,Mijita,"Mijita, 24 Willie Mays Plaza, San Francisco, CA 94017",37.7781747,-122.3907248,"Mexican restaurant, Restaurant",3.4,8,None,"0x80858078a8309d49:0x8c5b9cd82e5dc974, 0x8085807d55690c07:0x296a154b943bf82c",Delivery,Dining Venue,24 Willie Mays Plaza,San Francisco,San Francisco
3886,0x80c331f0c314eff3:0xe697c3eff85c3314,WaBa Grill,"WaBa Grill, 2209 E Baseline Rd Ste 600, Claremont, CA 91711",34.1227908,-117.6934573,"Asian fusion restaurant, Asian restaurant, Fast food restaurant, Health food restaurant, Rice restaurant",3.3,25,Closes soon ⋅ 9PM ⋅ Opens 10AM Thu,"0x80c33140ec8442a1:0x69adb361ed7f5329, 0x80c331671acf7ec3:0x3810e03056927c6b, 0x80c3304c64fccfaf:0xeb3ab07242016066, 0x80c336d6c2fb7e15:0x1a042adc5d19c07f","No-contact delivery, Delivery, Takeout, Dine-in",Dining Venue,2209 E Baseline Rd Ste 600,Claremont,Los Angeles
4009,0x809b053254d9dfab:0xb1b11e804211e0ea,Restaurant Josephine,"Restaurant Josephine, 1226 Lincoln Way, Auburn, CA 95603",38.8980934,-121.0746688,Restaurant,4.7,17,Closes soon ⋅ 9PM ⋅ Opens 5PM Thu,Sin resultados vinculados,"Takeout, Dine-in",Dining Venue,1226 Lincoln Way,Auburn,Placer
5012,0x80904101ce001281:0x76db23c5d22346ae,McDonald's,"McDonald's, 1205 S Main St, Manteca, CA 95336",37.7859954,-121.2180619,"Fast food restaurant, Breakfast restaurant, Coffee shop, Hamburger restaurant, Restaurant, Sandwich shop",2.4,48,None,"0x8090410018dc2657:0xed7a807ae3eeee6d, 0x809044429db077bd:0xa7dab0024931e75e, 0x809041003343d189:0xbcc7d0d1705edf91, 0x80904034ab965021:0x1da0bcd8aab19ad4","Takeout, Delivery",Dining Venue,1205 S Main St,Manteca,San Joaquin
5179,0x80c2c7049ff0132d:0xf598d3badb3f6dc,Tacos El Comelon (Food Truck),"Tacos El Comelon (Food Truck), 901 S Hill St, Los Angeles, CA 90015",34.0430606,-118.2573896,Restaurant,5.0,18,Open ⋅ Closes 1AM,"0x80c2c7b6ccec99f7:0xf4ffdd58c7c154f4, 0x80c2c7df89d32d6d:0x6125171acb806e85, 0x80c2c7a89f1a2389:0x86ff55bb21178de3, 0x80c2c813d80b40c3:0xc36b2a34b6e2afa4, 0x80c2bba2974235c3:0x9f7a1c929c64a134","Outdoor seating, Takeout, Dine-in, Delivery",Dining Venue,901 S Hill St,Los Angeles,Los Angeles
7553,0x808f917cef662e17:0xf30f09f58f38c163,Prime Time Nutrition,"Prime Time Nutrition, 22301 Mission Blvd, Hayward, CA 94541",37.6746819,-122.0873783,Health food store,3.2,15,Open ⋅ Closes 6PM,"0x808f9142d0fcc92b:0x9745436db3b80578, 0x808f93d7eaaa3ab5:0x68314ad261fa5369, 0x808f916f8e49f951:0x8cf32650bdbbace4, 0x808f9225c1b52b73:0x89055356b3b14e5a, 0x808f86f41017256f:0x825b463a5b2a35d1","In-store shopping, Delivery",Health Foods,22301 Mission Blvd,Hayward,Alameda
8259,0x80d955c8291e05b1:0x7192ff647be32017,Kenzi Coffee & Tea Garden,"Kenzi Coffee & Tea Garden, 1763 Third Ave, San Diego, CA 92101",32.7239442,-117.1617449,Coffee shop,4.6,13,Closed ⋅ Opens 7AM Thu,Sin resultados vinculados,"Takeout, Dine-in, Delivery",Café & Coffee,1763 Third Ave,San Diego,San Diego
8586,0x808f7792bd0c683d:0xefefd9d96f8fcb11,La Matcha Cafe,"La Matcha Cafe, 1828 El Camino Real UNIT 102, Burlingame, CA 94010",37.5955346,-122.3838125,"Lunch restaurant, Bakery, Breakfast restaurant, Bubble tea store, Cafe, Caterer, Coffee shop, Cupcake shop, Deli, Restaurant, Sandwich shop",4.9,28,Closed ⋅ Opens 9:30AM Thu,"0x808f77b4825974c7:0xa8db9e4556040b9b, 0x808f77a552a4400d:0xcbd8d87d8d5c21fc, 0x808f7625aefcf6a1:0x2d4d4079da79d541, 0x808f77b71d5a9729:0xc4486a068f6acdd2","Curbside pickup, No-contact delivery, Delivery, Takeout, Dine-in",Dining Venue,1828 El Camino Real UNIT 102,Burlingame,San Mateo
10701,0x80c2c798ad41d859:0x8823cd86d2abd5b3,La Superior Panaderia,"La Superior Panaderia, 2001 W 8th St, Los Angeles, CA 90057",34.0545417,-118.2767675,Mexican restaurant,4.3,30,Open ⋅ Closes 8PM,"0x80c2c778ebd7c863:0xbb10f80c16d3362, 0x80c2c7a05ccb6b2f:0x6dbeeda9d8f52a81, 0x80c2c77ed8881d79:0x55784b5e9876080b, 0x80c2c793c5b671b1:0x2b4a157270528f21, 0x80c2cf5e9dbfb09f:0xc63d1aa482618a06","Takeout, Delivery",Dining Venue,2001 W 8th St,Los Angeles,Los Angeles
10830,0x808f80b286dc6f9b:0xb9c0ee0392825cd4,Subway,"Subway, 1970 Broadway Lower Level, Oakland, CA 94612",37.808663,-122.2680694,"Sandwich shop, Fast food restaurant, Takeout Restaurant, Restaurant",3.2,15,Temporarily closed,Sin resultados vinculados,"Takeout, Delivery, Dine-in",Dining Venue,1970 Broadway Lower Level,Oakland,Alameda
10950,0x80c2dafa5c9a7b11:0x80ffb66da68a81a9,Denny's,"Denny's, 5603 Rosemead Blvd, Temple City, CA 91780",34.1015886,-118.0740459,"Diner, American restaurant, Breakfast restaurant",4.0,58,None,"0x80c2da139a5d5daf:0xdbc43bb4aa063219, 0x80c2da19984d4c67:0x62d5c4eb36d2a78e, 0x80c2daf08601c299:0x1a29f6e7731b38dc","Takeout, Delivery",Dining Venue,5603 Rosemead Blvd,Temple City,Los Angeles
11883,0x80ecf11263210e3b:0x6bb5b0e7180c138f,Brasserie SLO,"Brasserie SLO, 1119 Garden St, San Luis Obispo, CA 93401",35.2790514,-120.6633735,"Californian restaurant, Bar, Distillery",4.8,28,Closed ⋅ Opens 5PM,Sin resultados vinculados,"Outdoor seating, Takeout, Dine-in, Delivery",Dining Venue,1119 Garden St,San Luis Obispo,San Luis Obispo
11964,0x80dc9dcbf3081853:0x431bcc44582ddf42,Starbucks,"Starbucks, Newport FS Town Center, Menifee, CA 92584",33.6845997,-117.1790184,Coffee shop,4.5,26,Open ⋅ Closes 9PM,Sin resultados vinculados,"Takeout, Dine-in, Delivery",Café & Coffee,Newport FS Town Center,Menifee,Riverside
13694,0x80e82795a4c98179:0xf4b71863f4dbdf15,21 Biryani Pots,"21 Biryani Pots, 5639 Kanan Rd, Agoura Hills, CA 91301",34.1527736,-118.759376,Indian restaurant,4.6,33,Closed ⋅ Opens 11AM,Sin resultados vinculados,"Curbside pickup, No-contact delivery, Delivery, Takeout, Dine-in",Dining Venue,5639 Kanan Rd,Agoura Hills,Los Angeles
13780,0x80be3dd544115ed9:0x5d500f8046469ea3,1903 Taphouse & Co.,"1903 Taphouse & Co., 175 N Main St, Bishop, CA 93514",37.3618983,-118.3955549,American restaurant,4.7,8,None,Sin resultados vinculados,"Takeout, Dine-in, Delivery",Dining Venue,175 N Main St,Bishop,Inyo
13849,0x809ae58e5b6f8889:0x997c522d3d5cf906,Kiki's Chicken Place,"Kiki's Chicken Place, 1880 Prairie City Rd Suite #100, Folsom, CA 95630",38.6491859,-121.164803,Restaurant,3.7,8,Closed ⋅ Opens 10:30AM,Sin resultados vinculados,"Delivery, Takeout, Dine-in",Dining Venue,1880 Prairie City Rd Suite #100,Folsom,Sacramento
14064,0x808fc98efb9d9569:0xc4c73a073b199159,Eureka! Santa Clara,"Eureka! Santa Clara, 2762 Augustine Dr Suite 130, Santa Clara, CA 95054",37.3820362,-121.9772593,American restaurant,4.5,27,Closed ⋅ Opens 11AM,Sin resultados vinculados,"Outdoor seating, No-contact delivery, Delivery, Takeout, Dine-in",Dining Venue,2762 Augustine Dr Suite 130,Santa Clara,Santa Clara
15128,0x80c315687cd8bddb:0x921b0db291747add,Express Bakery La Salvadoreña,"Express Bakery La Salvadoreña, 4250 Phelan Rd, Phelan, CA 92371",34.4269812,-117.56916,Bakery,4.9,15,Closed ⋅ Opens 7AM,"0x80c314bcee4c228f:0x20c22df752649315, 0x80c371b6468434bd:0xb652b9a1324ea9e3, 0x80c3675aab1884d9:0xc7f3061c1366453f, 0x80c31497e676dd3d:0x939a60e257285ef3","In-store shopping, Takeout, Delivery",Bakery Shop,4250 Phelan Rd,Phelan,San Bernardino
15955,0x8085878a8085d297:0xadf6a9f9923446f2,Toyose,"Toyose, 3814 Noriega St, San Francisco, CA 94122",37.7531997,-122.5047022,Korean restaurant,4.5,14,Closed ⋅ Opens 6PM,Sin resultados vinculados,"Delivery, Takeout, Dine-in",Dining Venue,3814 Noriega St,San Francisco,San Francisco
16875,0x80dd2bc1dfc5d745:0x8432f4160c2da79c,The Broken Yolk Cafe,"The Broken Yolk Cafe, 8010 Beach Blvd, Buena Park, CA 90620",33.8463679,-117.9974934,Breakfast restaurant,4.0,28,Closed ⋅ Opens 7AM,Sin resultados vinculados,"Outdoor seating, No-contact delivery, Delivery, Takeout, Dine-in",Dining Venue,8010 Beach Blvd,Buena Park,Orange
17035,0x80c2d113d9850493:0xcb2e3a3f99e88dd8,Giant Union Co Inc,"Giant Union Co Inc, 9950 Mission Mill Rd, Whittier, CA 90601",34.018458,-118.0498916,Delivery Restaurant,4.0,8,Closed ⋅ Opens 8AM,"0x80c2c63641a93867:0xe1e19822f81cc962, 0x80c2d190e5fc2ad5:0x7f1ea0d430c61f8, 0x80c2d3eda901f80f:0xa74c078d5eff0fa1, 0x80c2d0b55f11785f:0x7ec5aefcf2f85328, 0x80c2d17b12a06ed7:0xd8398f867f4a18d2",Sin dato,Dining Venue,9950 Mission Mill Rd,Whittier,Los Angeles
17547,0x808f8f37c1b6d241:0x1b3bd5046ff3ce84,Tacos Dos Primos,"Tacos Dos Primos, 046 542501403, Oakland, CA 94603",37.7442557,-122.1698268,Mexican restaurant,4.7,35,Closed ⋅ Opens 9AM Fri,"0x808f85f6a01b38c3:0xa9147162400e1f96, 0x808f8f84faadbc13:0x37a4269562875b8d, 0x808f85eb8ebef633:0x2c8395d0d08fdd9e, 0x808f858a9fa3dd39:0x913d7a0abfde32aa","Takeout, Delivery",Dining Venue,046 542501403,Oakland,Alameda
17898,0x80c2c78f7d79ef43:0x597f758cb18e0dfe,L.A. Farmacia Natural,"L.A. Farmacia Natural, 1412 Vermont Ave, Los Angeles, CA 90006",34.0459034,-118.2911943,"Natural goods store, Health food store, Pharmacy, Vitamin & supplements store",4.4,66,Closed ⋅ Opens 10AM,"0x80c2c7a00710f03d:0xb7cb3db02677b09a, 0x80c2b885b01c983b:0x10def3e0b3546fa7, 0x80c2cf0c0c853c25:0x2bb8c9d148f8689b, 0x80c2cf46b82aeccf:0xef5846552088d1e6, 0x80c2cb8d04433607:0x86d2e1346020897","In-store pickup, In-store shopping",Health Foods,1412 Vermont Ave,Los Angeles,Los Angeles
17899,0x80c2c7855224b75b:0xb897f13e332e0241,Delcious Pastry & Bakery,"Delcious Pastry & Bakery, 2346 W Pico Blvd, Los Angeles, CA 90006",34.0469091,-118.2879942,Bakery,4.7,18,Closed ⋅ Opens 6AM,"0x80c2c785a5b703cb:0x58ecc11ec8a2ac26, 0x80c2c785974105c9:0x6f638dd932e8ccdb, 0x80c2c77f21d7114f:0x293b841b5c6a622d, 0x80c2c64ac7ab519f:0x5b9f4740e032770, 0x80c2c785da4c7543:0xea2029442b4ca657","In-store shopping, Takeout, Delivery",Bakery Shop,2346 W Pico Blvd,Los Angeles,Los Angeles
19181,0x80c2a3f2d19a95b9:0xbe7400caa486be55,Gladstones Pacific Palisades fillbox,"Gladstones Pacific Palisades fillbox, 17360-17392 Pacific Coast Hwy, Pacific Palisades, CA 90272",34.0382957,-118.5562896,Restaurant,4.9,18,Closed ⋅ Opens 11AM,"0x80c2a3f2d493cad3:0x6079a3cf068c163, 0x80c2a37bb2010929:0x42429785171d881e, 0x80c2a37bca243203:0xa9647f0ab7d33aad, 0x80c2a38d16c11dcd:0x32fe7b61ed6008cd","Takeout, Dine-in, Delivery",Dining Venue,17360-17392 Pacific Coast Hwy,Pacific Palisades,Los Angeles
20934,0x80db1bc2516bad15:0xd434ab55a2dc42e7,AsiaSF Palm Springs,"AsiaSF Palm Springs, 1555 S Palm Canyon Dr, Palm Springs, CA 92264",33.8056119,-116.5459447,Restaurant,4.8,14,Temporarily closed,Sin resultados vinculados,"Outdoor seating, Delivery",Dining Venue,1555 S Palm Canyon Dr,Palm Springs,Riverside
21102,0x808fcdfa6f4687ef:0x7fb26e5dee794dc4,Bún Riêu Cua Tân Định,"Bún Riêu Cua Tân Định, 999 Story Rd UNIT 9045, San Jose, CA 95122",37.3320664,-121.8571071,Vietnamese restaurant,3.8,55,Closed ⋅ Opens 9AM Thu,"0x808fcd8e0449b6dd:0x8bd8f737b1e9b535, 0x808e32bcf93f7485:0x6145922bbf888c81, 0x808e32bcf93e09b5:0x44e8d307d58f24ed, 0x808fcdfd16451c53:0x8dfc74bdc24544d","Outdoor seating, Takeout, Dine-in, Delivery",Dining Venue,999 Story Rd UNIT 9045,San Jose,Santa Clara
21725,0x80c2ce5ad7ea5515:0x155d92fbf5bf2cc7,MJ CAFE,"MJ CAFE, 6055 E Washington Blvd b11, Commerce, CA 90040",33.9968117,-118.1481783,"Cafeteria, Deli, Mexican restaurant, Restaurant",4.6,8,Closed ⋅ Opens 8AM Wed,"0x80c3295f6eabebeb:0xc7f5a1b676564e34, 0x80c2ce456d653b4b:0x587d414de8ae70c6, 0x80c2c548af36aae1:0x8fe969fa2f7a189d, 0x80c2c5383cde30d5:0xd169bc502421d257","Takeout, Dine-in, Delivery",Dining Venue,6055 E Washington Blvd b11,Commerce,Los Angeles
21895,0x808581e58e71c029:0x135c032c91c365fd,Jakes Steaks Mission,"Jakes Steaks Mission, 581 Valencia St, San Francisco, CA 94110",37.763689,-122.4215862,American restaurant,4.4,15,Closed ⋅ Opens 10AM Wed,Sin resultados vinculados,"Curbside pickup, No-contact delivery, Delivery, Takeout, Dine-in",Dining Venue,581 Valencia St,San Francisco,San Francisco
22135,0x80d951e31c0e285f:0x31f0ee60d6ecdc1f,Burger King,"Burger King, 3030 Plaza Bonita Rd Suite 2075, National City, CA 91950",32.6539998,-117.065369,Fast food restaurant,2.5,15,Closed ⋅ Opens 11AM Wed,"0x80d951fb495fe7f1:0x6f6e56ba89814e, 0x80d951fcac448583:0xb3e7085a2893bc04, 0x80d951e33e4bff55:0xd7754d2d88461dfa, 0x80d951e4b388ac2d:0x8f655ee93cc50d7b","Delivery, Takeout, Dine-in",Dining Venue,3030 Plaza Bonita Rd Suite 2075,National City,San Diego
22705,0x80c28758c9f2739f:0xe44f4ef91661c984,Subway,"Subway, 27530 Newhall Ranch Rd Suite 102, Valencia, CA 91355",34.4359523,-118.5627569,"Sandwich shop, Caterer, Fast food restaurant, Takeout Restaurant, Restaurant",4.2,48,Closed ⋅ Opens 7:30AM Wed,"0x80c27dfc89509ed3:0xbf7be69cc3cb93b7, 0x80c27dfca59905a3:0xbc763822515a7ff9, 0x80c27d9e70698783:0x8502ee647cb34790, 0x80c28713c504e603:0x98c28e4c489b67ad","Curbside pickup, Delivery, Takeout, Dine-in",Dining Venue,27530 Newhall Ranch Rd Suite 102,Valencia,Los Angeles
22865,0x808f7c5c7f58d549:0xab0b2de0814ad13,Nothing Bundt Cakes,"Nothing Bundt Cakes, 221 Lake Merced Blvd, Daly City, CA 94015",37.6998166,-122.4838323,"Bakery, Cake shop",4.3,28,Closed ⋅ Opens 10AM Wed,"0x808f7c09896817c3:0xb68ad5603b199246, 0x808f7c5db12e4d7d:0x2341cd9af713bed2, 0x808f7e281a94225d:0x92aa236bfb2eb4c6, 0x8085873144a8523d:0xdd451cca002df736","Curbside pickup, Delivery, In-store pickup, In-store shopping, Takeout, Dine-in",Bakery Shop,221 Lake Merced Blvd,Daly City,San Mateo
23789,0x808f9f16784e6f09:0x8d47c5981115ff6b,Starbucks,"Starbucks, 47 42nd Ave, San Mateo, CA 94403",37.529193,-122.289945,"Coffee shop, Cafe, Coffee store, Espresso bar",3.7,18,Closed ⋅ Opens 6AM Wed,"0x808f9ee1c28be7cf:0xb64ccec0bdfc61b3, 0x808f9e7087812b4d:0x332faa94b488e0c9, 0x808fa21ca95a48f7:0xbf39e9c7877c58ce, 0x808f9f1d40b46f9d:0xcda3e875aaca2d6c","Delivery, Takeout, Dine-in",Café & Coffee,47 42nd Ave,San Mateo,San Mateo
24014,0x80dd25f17eb1be7d:0xdb84dfaf0658e417,Sweet Traders,"Sweet Traders, 5362 Oceanus Dr unit c, Huntington Beach, CA 92649",33.742244,-118.035693,"Wedding bakery, Bakery, Chocolate shop, Dessert shop, Gift basket store",4.6,18,Closed ⋅ Opens 9AM Wed,"0x80dd31d4b352fe1f:0xa415bb336b18ee0c, 0x80dd25c9dafc6fe3:0xd2aeb83764c42851, 0x80dd25d46ba73c6f:0xdb7185c7ba04be97, 0x80dd213a4626918d:0x45f615590b912e8f","Curbside pickup, Delivery, In-store pickup, Onsite services, Takeout, Online appointments",Bakery Shop,5362 Oceanus Dr unit c,Huntington Beach,Orange
24072,0x80c2c0ae97a1989d:0x5d5a1128109282c7,Casual Public,"Casual Public, 1745 N Vermont Ave #4305, Los Angeles, CA 90027",34.1027147,-118.2919621,"Restaurant, Bar & grill",4.5,8,Closes soon ⋅ 9PM ⋅ Opens 3PM Wed,"0x80c2c0ae998d25b7:0x198252efb94e7f5a, 0x80c2c0adb314a897:0xc0c9002aaf246be1, 0x80c2c0cbb65f8c7d:0x55feb9c135814bd1, 0x80c2c0ae97a1d661:0x162e96d10107faff","Outdoor seating, Takeout, Dine-in, Delivery",Dining Venue,1745 N Vermont Ave #4305,Los Angeles,Los Angeles
24156,0x80dcafb14e219d6b:0xc6a83e0b565ed0b1,Alaska Crab,"Alaska Crab, 12580 Day St, Moreno Valley, CA 92553",33.9372957,-117.2779547,Restaurant,3.6,38,Open ⋅ Closes 10PM,Sin resultados vinculados,"Delivery, Takeout, Dine-in",Dining Venue,12580 Day St,Moreno Valley,Riverside
24371,0x8084d155d59bbe79:0xea9392e201d6ec6f,Costco Food Court,"Costco Food Court, 2299 Bronze Star Dr, Woodland, CA 95776",38.6722546,-121.7222436,Takeout Restaurant,3.8,8,Closed ⋅ Opens 10AM Wed,"0x8084d153f3b759a5:0xf94c1d759b78ea16, 0x8084d15393cab561:0xb292d7bba69f44b7, 0x8084d086733a605d:0x1e5708ab975d7763, 0x8084d1393d329267:0x1ec094bc2d12cf34, 0x8084d13e7e2d5443:0x784336cb899d6a2b","Takeout, Delivery",Dining Venue,2299 Bronze Star Dr,Woodland,Yolo
24456,0x80c4b388ffb45711:0x5be516b31e3d6d11,Botana,"Botana, 41618 Big Bear Blvd, Big Bear Lake, CA 92315",34.2436335,-116.8941692,Restaurant,3.8,13,None,"0x80c4b43e28b2fe5f:0x3033cde7827463c5, 0x80c4b3942967a37f:0x147a713db52db9, 0x80c4b388ffc953a9:0x6e0de2bee3e8871d, 0x80c4b3be0cf7355d:0x3b02a2e19aac7a6b, 0x80c4b391f404757b:0xa339ca2083cde329",Delivery,Dining Venue,41618 Big Bear Blvd,Big Bear Lake,San Bernardino
24704,0x809443ae04727ec5:0xc3c46b6d6bb526a3,Annesso Pizzeria,"Annesso Pizzeria, 8484 N Friant Rd, Fresno, CA 93720",36.8591893,-119.7829513,Italian restaurant,4.4,48,Open ⋅ Closes 10PM,Sin resultados vinculados,"Takeout, Dine-in",Dining Venue,8484 N Friant Rd,Fresno,Fresno
24809,0x80d94dab151ac567:0x70877709ce54a6b,San Diego Kabob Shack,"San Diego Kabob Shack, 200 Broadway, Chula Vista, CA 91910",32.6410979,-117.0938036,Restaurant,5.0,47,Closes soon ⋅ 9PM ⋅ Opens 10:30AM Wed,Sin resultados vinculados,"Delivery, Takeout, Dine-in",Dining Venue,200 Broadway,Chula Vista,San Diego
24867,0x80c2ba2a752f70f5:0x6a9269b538b6c380,Cemitas,"Cemitas, 9099 Venice Blvd., Los Angeles, CA 90034",34.0268173,-118.3931825,Mexican restaurant,4.6,5,Closed ⋅ Opens 9AM Wed,"0x80c2ba2e604a6f01:0x77967cb6f0696525, 0x80c2b90398f3df87:0x9bdaddc88afe0d04, 0x80c2ba5ca1fadbb7:0x6d569d7a512aa4e6, 0x80c2b9207984d089:0x9f496c331e907818, 0x80c2ba5e9bf3bd39:0xc21abe901e4a639e","Takeout, Dine-in, Delivery",Dining Venue,9099 Venice Blvd.,Los Angeles,Los Angeles
25087,0x80c2b4a77242fca3:0x79454fa0135ccf05,Mexican On The Pier,"Mexican On The Pier, 240 Fishermans Wharf, Redondo Beach, CA 90277",33.839306,-118.3917182,Mexican restaurant,4.2,15,Open ⋅ Closes 10PM,"0x80c2b4a77242fca3:0xa2e4e0da072aa8de, 0x80c2b4a7ab4a2c3b:0x19e65ac7d032327, 0x80c2b4a7ab4a2c3b:0xb46247bf97673262, 0x80c2b4a703abeef1:0xa9d8f8c42d9122a, 0x80c2b4a64f643e6d:0xa7bff2bcfd92837c","Takeout, Dine-in, Delivery",Dining Venue,240 Fishermans Wharf,Redondo Beach,Los Angeles
25269,0x80c29b16da873c63:0x43a18c961ab96175,Indian By Nature,"Indian By Nature, 8241 Tampa Ave, Reseda, CA 91335",34.2202414,-118.5540652,"Indian restaurant, Caterer, Delivery Restaurant",4.9,48,Closed ⋅ Opens 12AM Mon,Sin resultados vinculados,"Delivery, Takeout, Dine-in",Dining Venue,8241 Tampa Ave,Reseda,Los Angeles
26419,0x80dcde0d8c62747b:0x96e34b76f227568d,Subway,"Subway, A233 Student Center Food Court, Irvine, CA 92697",33.6491461,-117.8424367,"Sandwich shop, Fast food restaurant, Takeout Restaurant, Restaurant",3.6,8,Closed ⋅ Opens 10AM Wed,"0x80dcde08f3ef4981:0x7457b4ab000cb0d1, 0x80dcde0df3000001:0x12454c2b70b8bf91, 0x80dcde0ea6c40dc5:0xe07a16c6aa987ad0, 0x80dcde0d0ccae005:0x683b6236e4c62920","Takeout, Dine-in, Delivery",Dining Venue,A233 Student Center Food Court,Irvine,Orange
53528,0x80dd26692933a663:0x3702388158a67a60,3rd Generation Huntington Beach Asian Cuisine,"3rd Generation Huntington Beach Asian Cuisine, 7311 Edinger Ave, Huntington Beach, CA 92647",33.7304204,-118.0005539,"Asian restaurant, Ramen restaurant, Sushi restaurant",3.9,25,None,"0x80dd2689e793ce39:0xeb71c2c8e30cccb0, 0x80dd25bae333f28b:0xcb736c31c701a73, 0x80dd25ba5ad69159:0xa2036b3a915306c5",Delivery,Dining Venue,7311 Edinger Ave,Huntington Beach,Orange
54650,0x8085b169767ab3e3:0x4735d907927ecaed,Subway,"Subway, 2620 Lakeville Hwy Suite 320, Petaluma, CA 94954",38.2334812,-122.6030844,"Sandwich shop, Caterer, Fast food restaurant, Takeout Restaurant, Restaurant",3.0,26,Closes soon ⋅ 7PM ⋅ Opens 9AM Wed,"0x8085b16c047684fb:0x81fcdfad4780cce0, 0x8085b4fb46ddc013:0x42204f04fb71630, 0x8085b153f3de3e5d:0xdc59f70f3b7a4a3b, 0x8085b406d00ec3af:0x8fe19e63a79617fd, 0x8085b406d9680049:0x52bb1cf8999cb885","Curbside pickup, Delivery, Takeout, Dine-in",Dining Venue,2620 Lakeville Hwy Suite 320,Petaluma,Sonoma
55629,0x808f7e2d25c415a5:0x63f483c813b91c8f,Source,"Source, 11 Division St, San Francisco, CA 94103",37.7694622,-122.4025698,Vegan restaurant,4.1,68,None,Sin resultados vinculados,Delivery,Dining Venue,11 Division St,San Francisco,San Francisco
56074,0x808fcde2ed993429:0xd80864b96af27cdc,Con sabor a Mexico,"Con sabor a Mexico, 500 W San Carlos St, San Jose, CA 95126",37.3253588,-121.898537,Taco restaurant,5.0,18,Open ⋅ Closes 8PM,Sin resultados vinculados,"Takeout, Dine-in, Delivery",Dining Venue,500 W San Carlos St,San Jose,Santa Clara
56075,0x808e33eef167b00d:0xaca58d640f044aea,Los Dubon Restaurant,"Los Dubon Restaurant, 1182 Lincoln Ave, San Jose, CA 95125",37.307118,-121.8995972,Salvadoran restaurant,3.8,18,Open ⋅ Closes 8:30PM,Sin resultados vinculados,"Takeout, Dine-in",Dining Venue,1182 Lincoln Ave,San Jose,Santa Clara
56614,0x80c3643366e3b487:0x15bcb6613d7d3f74,7-Eleven,"7-Eleven, 14595 Seventh St, Victorville, CA 92395",34.5159955,-117.313051,"Convenience store, Bakery, Beer store, Candy store, Coffee shop, Food products supplier, Gas station, Snack bar, Tobacco shop, Wine store",2.4,28,Open 24 hours,"0x80c364483c376eff:0x54eb1958f4fc61d7, 0x80c365eefc99cff9:0xe7850c3fd3f8dd85, 0x80c36f1a3074c781:0xb46372572c7ee591, 0x80c3677efcad60e9:0xde08a085b988dbc4","No-contact delivery, Delivery, In-store shopping",Café & Coffee,14595 Seventh St,Victorville,San Bernardino
57208,0x80eadd087916a151:0xe9f866917196f6e7,Subway,"Subway, 1164 N Front St, Earlimart, CA 93219",35.8944185,-119.2759073,"Sandwich shop, Caterer, Fast food restaurant, Takeout Restaurant, Restaurant",3.8,37,Open ⋅ Closes 11PM,"0x80eadd0eb8acb033:0x5ae110c08e17021c, 0x80eadd6562d321ab:0x1a9e6d072e793440, 0x80eadd74bceafd49:0xf5d478fed5349fff, 0x80eadd09759790e1:0x77fa1bd1cf0572e1","Takeout, Dine-in",Dining Venue,1164 N Front St,Earlimart,Tulare
58369,0x8085784fbe31dc5b:0x717667cec5307c54,Trevino's,"Trevino's, 11795 San Pablo Ave, El Cerrito, CA 94530",37.9275935,-122.3205368,Mexican restaurant,4.0,36,None,"0x80857855a35281f1:0x4051f05fcde13f9e, 0x8085783cae8ab537:0xd58cd2ef361d8fdb, 0x808577c32eceecb9:0x706ab0c5a84b0434, 0x808578039dc20d8f:0x5da247b25d148738",Delivery,Dining Venue,11795 San Pablo Ave,El Cerrito,Contra Costa
59182,0x80966ae37904d653:0x3e9e551c82823ca8,Alpine Deli and Pizza Co,"Alpine Deli and Pizza Co, 2784-B, Boulder Dr, June Lake, CA 93529",37.7777052,-119.0764539,"Deli, Pizza Takeout, Sandwich shop",4.1,28,Closed ⋅ Opens 4PM Wed,"0x80966ae5db35b60f:0x133ce0d9850ab7a5, 0x80966a3583938485:0xe1e9a21459f607f6, 0x80966bd6ed018d41:0x74e7c8f85f239546","In-store shopping, Takeout, Delivery",Quick Service,"2784-B, Boulder Dr",June Lake,Mono
59800,0x80d957868f2ff275:0x2a58075cad572fc8,Lolita's Mexican Food,"Lolita's Mexican Food, 5120 College Ave Suite 125, San Diego, CA 92115",32.7710336,-117.0702359,"Restaurant, Mexican restaurant",4.2,38,Open ⋅ Closes 9PM,"0x80d95685a467ad0b:0x88c08515a1b353be, 0x80d9568683582871:0x322c040727ae2fd7, 0x80d956970c94a9bf:0x3218612f38f011a1, 0x80d95420918d248b:0xaea35f153528a8df, 0x80d95685b8e1468b:0xed6a30cce386c586","Delivery, Takeout, Dine-in",Dining Venue,5120 College Ave Suite 125,San Diego,San Diego
60421,0x809054bee4f0ff45:0x7a4d72a9c2f53a35,El Palenque,"El Palenque, 1432 Mayette Ave, Modesto, CA 95351",37.6234201,-121.0188762,"Bar, Latin American restaurant, Mexican restaurant",3.7,17,Closed ⋅ Opens 12PM,"0x809053c044163825:0x4481e947a8fc1bf0, 0x8090539216518a29:0xf8aad735eb3af33b, 0x80905364855c7b0f:0x1f74842c31bd1d77, 0x809053f3ed89abbb:0xcd7d12f52efc906c","Dine-in, Delivery",Dining Venue,1432 Mayette Ave,Modesto,Stanislaus
60475,0x80c34c8452e55553:0x314f9cf33b21aa82,EL OASIS FRUTAL,"EL OASIS FRUTAL, 16385 Merrill Avenue #500, B, Fontana, CA 92335",34.0918069,-117.4469667,"Juice shop, Mexican restaurant",4.3,17,Open ⋅ Closes 8PM,"0x80c34c6113f5a861:0xb848d61fd432ffd0, 0x80c34c89b83f94e7:0x78b348e624c102a, 0x80c34b967c5ec783:0x97594ea18408662c, 0x80c34b87d3380bfb:0xd777810e0025927e, 0x80c34c947ddf3113:0x648c1f61639b1adb","Takeout, Dine-in, Delivery",Dining Venue,"16385 Merrill Avenue #500, B",Fontana,San Bernardino
60502,0x80c2d78f83e4823d:0xb9a3d42214ea59a4,Pho Oh Love,"Pho Oh Love, 1831 N Hacienda Blvd, La Puente, CA 91744",34.0521515,-117.9439046,Vietnamese restaurant,4.7,24,Open ⋅ Closes 8:30PM,Sin resultados vinculados,"Delivery, Takeout, Dine-in",Dining Venue,1831 N Hacienda Blvd,La Puente,Los Angeles
61918,0x80c3345700293b63:0xcaada1f034a260e8,Pacific Grille,"Pacific Grille, 2200 E Holt Blvd, Ontario, CA 91761",34.0633987,-117.6050917,"Restaurant, Lounge",3.8,17,None,"0x80c334598fe2c60d:0xce25694c97fb8a79, 0x80c3345b04a5263f:0x57b035f9722ba8e, 0x80c3345a13567cff:0xa4ceb27cd272225f, 0x80c33459edbce54d:0x17922b4d9bf7a4e9, 0x80c335ac49a0961b:0xb4149f051930f765",Delivery,Dining Venue,2200 E Holt Blvd,Ontario,San Bernardino
62535,0x80c3317fe7ac0001:0xd7aa83c1fd777828,La Michoacana,"La Michoacana, 9469 Central Ave, Montclair, CA 91763",34.0819621,-117.6891107,Mexican restaurant,3.9,30,Closed ⋅ Opens 10AM Wed,"0x80c32e1fc285484b:0x9a793fe6ca9685c3, 0x80c333dcdfaad639:0xb352f0eb0ed801a5, 0x80c3334d595bac5f:0x1a8d91a7bbbcae78, 0x80c336bad64046af:0xf328ef77ab6717c6","Takeout, Dine-in, Delivery",Dining Venue,9469 Central Ave,Montclair,San Bernardino
62587,0x80dcd8e45e230f4d:0xd4ad1cdcfb4b5027,Taqueria La Fiesta,"Taqueria La Fiesta, 3479, 1180 S Bristol St #106, Santa Ana, CA 92704",33.7324989,-117.8863074,"Mexican restaurant, Latin American restaurant",3.8,16,Closed ⋅ Opens 10AM,"0x80dcd8f8be0d689f:0x8ab4546a3384ce76, 0x80dcd8ff72ead5e3:0x6e7babc8aa71ac37, 0x80dd27862c4a5237:0xdad26b308ec9ed37, 0x80dcd923041b83e7:0x7df0241fc6e3dcb","Takeout, Dine-in, Delivery",Dining Venue,"3479, 1180 S Bristol St #106",Santa Ana,Orange
63436,0x80dbe9a345445081:0x87c14e04a71c1c9,Popeyes Louisiana Kitchen,"Popeyes Louisiana Kitchen, 1801 Main St, Ramona, CA 92065",33.035148,-116.881349,"Chicken restaurant, Cajun restaurant, Fast food restaurant, Restaurant, Seafood restaurant",4.2,33,Closed ⋅ Opens 10AM,Sin resultados vinculados,"Takeout, Dine-in",Dining Venue,1801 Main St,Ramona,San Diego
63733,0x80deaa0ee3ea1bdb:0x61a87ec3e5ef0ba,El Jefes Taco Shop,"El Jefes Taco Shop, 3105 Ocean Front Walk, San Diego, CA 92109",32.7700243,-117.2527426,Taco restaurant,4.0,26,Closed ⋅ Opens 12PM,"0x80deaa0935e83461:0xb05a4f693a5d4901, 0x80deaa094a12bc8b:0xacae34aaa768c47b, 0x80deaa11ebfae401:0x7dba760832f9aa94, 0x80dc01efabd3dff3:0x4e8ac2b8d3bd31c7, 0x80deaa092eb74757:0x30fd1cbeec26f0bf","Takeout, Dine-in, Delivery",Dining Venue,3105 Ocean Front Walk,San Diego,San Diego
64259,0x808579a13d92e57b:0x80636c4c581b70d8,Shangrila Buddha Organic Vegan Restaurant,"Shangrila Buddha Organic Vegan Restaurant, 755 San Pablo Ave, Albany, CA 94706",37.8921543,-122.299302,Vegan restaurant,4.7,36,Closed ⋅ Opens 11AM,Sin resultados vinculados,"Delivery, Takeout, Dine-in",Dining Venue,755 San Pablo Ave,Albany,Alameda
64517,0x80dc072d35244e9f:0x73b5a20fbf1d04d6,Charleys Cheesesteaks,"Charleys Cheesesteaks, 4545 La Jolla Village Dr Ste FC3A, San Diego, CA 92122",32.8703549,-117.2103986,"Cheesesteak restaurant, American restaurant, Fast food restaurant, Sandwich shop",4.2,36,Closed ⋅ Opens 11AM,"0x80d955496231ae77:0x9bdab31111e938cc, 0x80dbffe9a98fac1f:0xb6ec7bf0168ab44, 0x80dc072d34096391:0x2a198af359c87bb4, 0x80d959b69bae8581:0x96d7f83825e36943, 0x80d9537c4aaf33c3:0x3bc6db2327d8a9d1","Delivery, Takeout, Dine-in",Dining Venue,4545 La Jolla Village Dr Ste FC3A,San Diego,San Diego
65396,0x80dd3138a43a4147:0xa2e5ff443ec27a3a,TOGO'S Sandwiches,"TOGO'S Sandwiches, 510 Long Beach Blvd, Long Beach, CA 90802",33.773082,-118.189096,"Sandwich shop, Caterer, Deli, Fast food restaurant, Takeout Restaurant, Restaurant, Salad shop",3.9,18,None,"0x80dd31f79ef52439:0x507ac030cef902b1, 0x80dd31473ac796d7:0x2691789fce1d8bc8, 0x80dd314737fb34a1:0x8bc0e9f3cfd0ea31, 0x80dd317a919a7e31:0x6e6f5376f9113bec, 0x80dd313c115f7f5d:0x3d4c14a19e62ed7b","Takeout, Delivery",Dining Venue,510 Long Beach Blvd,Long Beach,Los Angeles
66543,0x80e82538e483969b:0xb8cf9aec4d482d22,Bonibi Coffee,"Bonibi Coffee, 32123 Lindero Canyon Rd STE 111, Westlake Village, CA 91361",34.1386624,-118.8230376,"Coffee shop, Bakery, Gift shop, Pastry shop, Tea house",4.8,28,Closed ⋅ Opens 8AM,"0x80e824e25b347f5d:0x8f09d19c3f45c1b, 0x80e82522eeaaf937:0x77e2bb1d979a712d, 0x80e830bb6ca43979:0xaff2f9f68cbe96c7, 0x80e825e4971e7641:0xf6476f837497ab85","Outdoor seating, Takeout, Dine-in, Delivery",Café & Coffee,32123 Lindero Canyon Rd STE 111,Westlake Village,Los Angeles
66544,0x80eadbbb62e66a23:0x53634d6721b59fe5,Taco Truck,"Taco Truck, 225 Allen Ave, Pixley, CA 93256",35.9649821,-119.2922385,Mexican restaurant,4.6,24,Closed ⋅ Opens 10AM,"0x80eadbb0ef2983c3:0x74904b705555d349, 0x80eadbb0e1fb01c3:0x58856d8807d08657, 0x80eadbb1424e666b:0xe3a29f7548e2c154, 0x80eadbb04152c903:0xea65287000140, 0x80eadd09759790e1:0x77fa1bd1cf0572e1","Takeout, Dine-in, Delivery",Dining Venue,225 Allen Ave,Pixley,Tulare
67481,0x80910ebdc97608cd:0xa5490e548b2faafa,Scoops,"Scoops, 16385 Schendel Ave # G, Delhi, CA 95315",37.4259455,-120.7844734,"Ice cream shop, Coffee shop, Dessert shop, Sandwich shop",4.8,17,Closed ⋅ Opens 12PM,"0x80910e90943a5f35:0x9f5dce1bb09b4aff, 0x8091066af0f7ec99:0x36b248cfa07143d, 0x80910d79a046d6d1:0xb06aea6f8e0a72b3, 0x8091064a3b8e3b67:0x56df0f0d63c32223, 0x80916b65d22c9ac5:0x1ce421351e6e2eea","Takeout, Delivery",Sandwich Bar,16385 Schendel Ave # G,Delhi,Merced
68786,0x80dc74c05fbe32a5:0xba7207ab85bb8e32,Forum Deli,"Forum Deli, 3132 Tiger Run Ct, Carlsbad, CA 92010",33.1311023,-117.2425223,Sandwich shop,4.1,14,Closed ⋅ Opens 9AM,"0x80dc74ec632ec25d:0x55a13fa6884c9fd5, 0x80dc7360215042f3:0xbc4c18ac697f5a92, 0x80dc0c6f2065cc61:0xcaeb217504504890, 0x80dc71582f8782d3:0xf5b21091c5ea9ac7, 0x80dc0b7f897bc9a3:0xbabd9dfa75b430dd","No-contact delivery, Delivery, Takeout",Sandwich Bar,3132 Tiger Run Ct,Carlsbad,San Diego
69037,0x80dd362ffc0c50d5:0xd4afdef520c64b08,Tacos Y Mariscos,"Tacos Y Mariscos, 615 S Pacific Ave, San Pedro, CA 90731",33.7384074,-118.2880763,Mexican restaurant,3.8,58,Closed ⋅ Opens 10AM,"0x80dd362fdfce1b83:0x79d976d11a3c6b51, 0x80dd362fe19b2239:0xdc6813561d145610, 0x80dd36238dd0f473:0xad285ae4e00536d, 0x80dd363b55832469:0xdce156575e6ff58a, 0x80dd362ffbe85fc9:0xfc7a880991cc465b","Delivery, Takeout, Dine-in",Dining Venue,615 S Pacific Ave,San Pedro,Los Angeles
70350,0x54d3126e224514a5:0xc5e32232d9681576,Wildwood Inn and RV Park,"Wildwood Inn and RV Park, 2721 Wildwood Rd, Wildwood, CA 96076",40.402172,-123.0596084,"RV park, Bar, Beer store, Cafe, Gas station, Pizza restaurant, Pool hall, Wine bar, Wine store",4.5,25,None,"0x54d3127141213075:0xa5384397679cac85, 0x54d30ec4aa86a487:0x9f473da08152dbab",Sin dato,Dining Venue,2721 Wildwood Rd,Wildwood,Trinity
70445,0x80857fb9e4fc285f:0x857dd299dab5d6cb,Pizza Guys,"Pizza Guys, 1109 University Ave, Berkeley, CA 94702",37.8694048,-122.2916698,Pizza restaurant,4.3,18,Closed ⋅ Opens 10AM,Sin resultados vinculados,"Delivery, Takeout",Dining Venue,1109 University Ave,Berkeley,Alameda
70446,0x80905366c9b34421:0xc2f925cc339e8082,Guadalajara Market,"Guadalajara Market, 1605 Crows Landing Rd, Modesto, CA 95358",37.6072901,-120.9939017,Mexican restaurant,4.2,68,Closed ⋅ Opens 7AM,"0x8090535e9548b28d:0xdd88ab4a4b5afa7b, 0x80905364855c7b0f:0x1f74842c31bd1d77, 0x8090535dfc335627:0x16db3c6820e71dfc, 0x8090537b5825c955:0x16569c60aac40eaa, 0x8091a855dfaf5d09:0xa94e329fa12fbec3","Takeout, Dine-in, Delivery",Dining Venue,1605 Crows Landing Rd,Modesto,Stanislaus
73188,0x808f7f6366731ebd:0x8f3d832962c9ee77,SPRO,"SPRO, 500 Church St, San Francisco, CA 94114",37.7627973,-122.4286748,"Cafe, Bakery, Coffee shop, Dessert shop, Hamburger restaurant, Restaurant, Salad shop, Sandwich shop",4.9,35,Closed ⋅ Opens 7AM Tue,Sin resultados vinculados,"Outdoor seating, Takeout, Dine-in",Dining Venue,500 Church St,San Francisco,San Francisco
73561,0x80c2bb5bf5cc4ce9:0xa46604dd543ca1c7,Yamakase,"Yamakase, 11901 Santa Monica Blvd, Los Angeles, CA 90025",34.0421467,-118.4608771,Restaurant,4.5,25,Closed ⋅ Opens 7PM Tue,"0x80c2a4c4528cf3ed:0x5423b7fd136ee520, 0x80c2bb098468d6a7:0xd242b7364a3dd8bd, 0x80c2ba34c89eb16f:0x49648b4811cb5b39, 0x80c2bb684a20dd9d:0xa5a8ac9b5becd509","Dine-in, Delivery",Dining Venue,11901 Santa Monica Blvd,Los Angeles,Los Angeles
74984,0x80c2c7b3b03af0f3:0xae620d1f51b14c0b,Salata,"Salata, 505 Flower St #B430, Los Angeles, CA 90071",34.0514702,-118.2564231,"Restaurant, Takeout Restaurant, Salad shop, Soup restaurant",3.8,34,Closed ⋅ Opens 10:30AM Tue,"0x80c2c7b65a92a9b3:0xd888f61a78330c6, 0x80c2c7c2ef6b5d3b:0x93f439f4d311be81, 0x80c2c7c223775fcd:0x33fe9b8063b60da2, 0x80c2c7b3b03af0f3:0x72dac74ab6281b25","No-contact delivery, Delivery, Takeout, Dine-in",Dining Venue,505 Flower St #B430,Los Angeles,Los Angeles
77525,0x80dc7514687a3097:0x9126724fe1e118fd,Meal Prep Sunday San Diego,"Meal Prep Sunday San Diego, 2381 La Mirada Dr, Vista, CA 92081",33.152487,-117.2278859,"Delivery Restaurant, Health food store",4.7,96,Open 24 hours,Sin resultados vinculados,"Delivery, Takeout, Dine-in",Dining Venue,2381 La Mirada Dr,Vista,San Diego
78418,0x809ad758b410f11b:0x6a6aef4b5f1a3337,Shop & Save Smoke Shop,"Shop & Save Smoke Shop, 2525 Del Paso Blvd, Sacramento, CA 95815",38.6129843,-121.4467469,"Restaurant, Store",3.7,28,Open ⋅ Closes 8PM,"0x809ad9e2ed713e6b:0xb7d1aa53ec87b9a8, 0x809ad9ee7c26e0f5:0x3454027dd8a505d3, 0x809ad75cbbb44151:0xd9f3201599f7db59, 0x809ad9d5509d4a7b:0xa3c083c3901956d8",Delivery,Dining Venue,2525 Del Paso Blvd,Sacramento,Sacramento
78500,0x80c2c62e938d4ad7:0x10113c7633cb19d2,La Papa Loca,"La Papa Loca, 1210 E Olympic Blvd, Los Angeles, CA 90021",34.0331421,-118.2457837,Mexican restaurant,4.2,35,Open ⋅ Closes 8:30PM,"0x80c2c6060f244b5d:0xba79c65be0d3ec63, 0x80c2c634ad2e85c1:0x7608d5d491acbfd4, 0x80c2c7cad7dc1225:0xa0c375b6f0b63157, 0x80c2c6292d80e60b:0x6d2ed67b8945906e","Outdoor seating, Takeout, Dine-in, Delivery",Dining Venue,1210 E Olympic Blvd,Los Angeles,Los Angeles
81319,0x80c2b9518dc4f7e7:0xdfbf945567a04fe2,Star Night,"Star Night, 3855 Wilshire Blvd, Los Angeles, CA 90010",34.0619887,-118.3108337,"Korean restaurant, Asian restaurant, Bar, Beer garden, Dinner theater, Lounge",4.1,118,Closed ⋅ Opens 5PM,"0x80c2b882d2258de7:0x6ba5b6d4dd6ad7e, 0x80c2c77e380fe22f:0xf5ad158a438adcec, 0x80c2c77d42f8f245:0xb46807a8ea64c6c5, 0x80c2c77d8fb16dcd:0xf4513b5c7b31c44e, 0x80c2b89009cb4993:0x3ea92acad63469a8","Outdoor seating, Takeout, Dine-in, Delivery",Dining Venue,3855 Wilshire Blvd,Los Angeles,Los Angeles
81371,0x80858098b84b7d5d:0x1c94d9c3a89b3839,Stelline,"Stelline, 330 Gough St, San Francisco, CA 94102",37.7767173,-122.4226999,Restaurant,4.1,16,None,Sin resultados vinculados,Delivery,Dining Venue,330 Gough St,San Francisco,San Francisco
82176,0x80eafbb0a4c71551:0xb3569973afb20bc4,Broski Mariscos,"Broski Mariscos, 46 Rd 156, Delano, CA 93215",35.7912857,-119.2230429,Seafood restaurant,4.7,33,None,"0x80eae76408a36cad:0x65fe7da4a35e38, 0x80eae5e1d135f829:0x736ea2bac26128a, 0x80eafa998097a991:0xc0d77f9440c98c2f, 0x80eaf07e34f57611:0x43a3e37ad32d04a2","Takeout, Dine-in, Delivery",Dining Venue,46 Rd 156,Delano,Kern
83556,0x80c35123629c7e37:0x618390bd15821710,Einstein Bros. Bagels,"Einstein Bros. Bagels, 5500 University Sciences Building, San Bernardino, CA 92407",34.1833676,-117.3251213,"Bagel shop, Bakery, Breakfast restaurant, Cafe, Coffee shop",4.3,36,Open ⋅ Closes 8PM,"0x80dcac8d8ade4291:0x22de593233e2c0a8, 0x80c3522b236e11d3:0x197e12f3c8aca7b8, 0x80c3519adaa56b45:0xa2f0940dae0fd9aa, 0x80c3518de2e80335:0x8b3121697b7ed798, 0x80c3518fc3fcacc9:0x834cfd7c0278cc1b","In-store pickup, In-store shopping, Takeout",Dining Venue,5500 University Sciences Building,San Bernardino,San Bernardino
84082,0x80c286c058efe071:0x731b6cf8b2c857b4,S & S Donut & Bake Shop,"S & S Donut & Bake Shop, 24266 Lyons Ave, Santa Clarita, CA 91321",34.378231,-118.5595448,Bakery,4.6,26,Open ⋅ Closes 6PM,"0x80c27d8c0ea4c05d:0x8501abf84fc5e954, 0x80c288888fc9157d:0x85a374125d75347b, 0x80c281282b2d7051:0x529a857f61ed971b, 0x80c2865fc3bd2c7d:0xbca85b4f2efe4d52, 0x80c2868d1dbd1819:0x872dd545888e78a6","In-store shopping, Takeout, Delivery",Bakery Shop,24266 Lyons Ave,Santa Clarita,Los Angeles
85418,0x80c2c712dc6c3aa1:0xd01bff4a6fb3492a,Panamerican Night Club (Oficial),"Panamerican Night Club (Oficial), 2601 W Temple St, Los Angeles, CA 90026",34.0726952,-118.2749667,"Night club, Bar, Restaurant",4.0,98,Closed ⋅ Opens 9PM,"0x80c2c7c97a2afe63:0xad368894d57170a1, 0x80c2c7b782019c1b:0x2aa1b5c2532a2b08, 0x80c2c6ff80245dd5:0x5a1488e59e03d133, 0x80c2b8ad313d9f47:0x93481c19c1d8862e, 0x80c2c6cf1f507203:0x598b41f2579be3be","Dine-in, Delivery",Dining Venue,2601 W Temple St,Los Angeles,Los Angeles
86684,0x80c2bb9c60b71fd5:0x257df43021838bbe,Sushi Masu,"Sushi Masu, 1911 Westwood Blvd, Los Angeles, CA 90025",34.0477539,-118.4353355,"Sushi restaurant, Barbecue restaurant, Japanese restaurant, Restaurant",4.3,26,None,"0x80c2bbd03da7bac3:0xd384ff9f4914014e, 0x80c2bb7770bea143:0xa52f543738424b9b, 0x80c2bb0ac7a8d761:0xcec9309b9f78f309, 0x80c2bb098468d6a7:0xd242b7364a3dd8bd, 0x80c2bb7525deddaf:0x2c508ff0b1e72be3",Delivery,Dining Venue,1911 Westwood Blvd,Los Angeles,Los Angeles
87032,0x80c329e97079dd07:0xbb4c93b0058fbf0d,Crumbl Cookies - Glendora,"Crumbl Cookies - Glendora, 1365 E Gladstone St, Glendora, CA 91740",34.1164033,-117.8358673,"Bakery, Cookie shop, Dessert shop",4.8,197,Closed ⋅ Opens 8AM,Sin resultados vinculados,"Curbside pickup, No-contact delivery, Delivery, In-store pickup, In-store shopping, Takeout, Dine-in, Same-day delivery",Bakery Shop,1365 E Gladstone St,Glendora,Los Angeles
87913,0x80c2c920e14eef15:0x5742c3ff75909ee3,Tokyo Bowl,"Tokyo Bowl, 5938 Pacific Blvd, Huntington Park, CA 90255",33.9873914,-118.2246128,"Japanese restaurant, Asian restaurant",4.2,38,Closed ⋅ Opens 11AM,"0x80c2c94a6eef8fd7:0x1080f2f1d351425a, 0x80c2c9239ba2dd3f:0x55ea356e76a08b06, 0x80c2c8de8ff81fab:0x50aff51b35e65c3b, 0x80c2c7c2b6a7537f:0x904ec3408dd25a6f, 0x80c2c92ea6c9baf1:0x7b9864e055984ff6","Delivery, Takeout, Dine-in",Dining Venue,5938 Pacific Blvd,Huntington Park,Los Angeles
88377,0x80dcd57875a9ba93:0x2f865b28228cd1b5,Din Tai Noodle,"Din Tai Noodle, 1034 E Bastanchury Rd, Fullerton, CA 92835",33.8984004,-117.9118666,"Chinese noodle restaurant, Asian fusion restaurant, Chinese restaurant, Takeout Restaurant",4.3,16,Closed ⋅ Opens 11AM Tue,Sin resultados vinculados,"Curbside pickup, No-contact delivery, Delivery, Takeout, Dine-in",Dining Venue,1034 E Bastanchury Rd,Fullerton,Orange
89465,0x80ece37d08aad231:0x5fc581d6af290ab1,Beerwood,"Beerwood, 690 Santa Maria Ave, Baywood-Los Osos, CA 93402",35.3283335,-120.8400805,Restaurant,4.9,45,Closed ⋅ Opens 11AM,Sin resultados vinculados,"Outdoor seating, Takeout, Dine-in, Delivery",Dining Venue,690 Santa Maria Ave,Baywood-Los Osos,San Luis Obispo
90169,0x80c32bf500c0abc9:0x6c366f8a918f5aed,Subway,"Subway, 21710 Valley Blvd Suite C, City of Industry, CA 91789",34.0279843,-117.8337104,"Sandwich shop, Caterer, Fast food restaurant, Takeout Restaurant, Restaurant",3.6,38,Closed ⋅ Opens 9AM,"0x80c32bf5aa338c3f:0x180104ad05e07948, 0x80c32bf4e57c7bf3:0xb344a0a1645b302, 0x80c32bf5a68572e5:0x5702213c00d8a9e","Curbside pickup, Delivery, Takeout, Dine-in",Dining Venue,21710 Valley Blvd Suite C,City of Industry,Los Angeles
90192,0x80dcd94f21252ddb:0xb92a04d481fbe01a,Tacos El Catrin,"Tacos El Catrin, 415 N Bristol St, Santa Ana, CA 92703",33.7486392,-117.8847965,Restaurant,4.7,35,Closed ⋅ Opens 7PM,"0x80dd27862c4a5237:0xdad26b308ec9ed37, 0x80dcd9279656a619:0x411e22350afd8319, 0x80dcd8da655f0001:0x5fc71cdae5ee4382, 0x80dcd9afc88bb9ff:0x74744fbd22a0ca4b, 0x80dcd85bd5806fab:0xcd28b015a7810b6d","Outdoor seating, Curbside pickup, Delivery, Takeout, Dine-in",Dining Venue,415 N Bristol St,Santa Ana,Orange
91593,0x80dcd949e53e5d2d:0xb03235799f52fe2a,Cafe 269,"Cafe 269, 12781 Harbor Blvd, Garden Grove, CA 92840",33.777559,-117.9163068,Cafe,4.5,18,Closed ⋅ Opens 7AM,Sin resultados vinculados,Delivery,Café & Coffee,12781 Harbor Blvd,Garden Grove,Orange
92682,0x808e32ea37ec2793:0x3bf2fc4cb6436cce,Xinh Xinh Cafe,"Xinh Xinh Cafe, 1075 Tully Rd, San Jose, CA 95122",37.3149174,-121.8380708,Cafe,4.3,36,Open ⋅ Closes 12AM,"0x808e32bc2a4b0731:0x982ca2ed3efacbf3, 0x808e332ab4d414d7:0x63824bb11546c97d, 0x808fcd2a5bab78dd:0xe20e006c4bce2334, 0x808e32a345879389:0x1ba3674ec8f207f, 0x808e32a35a3b0bf3:0x8db3a8150552ca97","Takeout, Dine-in, Delivery",Café & Coffee,1075 Tully Rd,San Jose,Santa Clara
93884,0x809ad7381afd6843:0xceaecec727b67574,Dutch Bros Coffee,"Dutch Bros Coffee, 4130 Northgate Blvd, Sacramento, CA 95834",38.644403,-121.475713,"Coffee shop, Cafe, Juice shop, Tea house",4.4,98,Open ⋅ Closes 11PM,Sin resultados vinculados,"Outdoor seating, Takeout, Delivery",Café & Coffee,4130 Northgate Blvd,Sacramento,Sacramento
94327,0x80c2c83f3df0aba3:0xed2bf79813b73da6,Chavez Guadalupe,"Chavez Guadalupe, 5300 S Broadway, Los Angeles, CA 90037",33.9940754,-118.2780823,Mexican restaurant,4.4,37,Open 24 hours,"0x80c2bf271841680d:0xacf2ee3773d03680, 0x80c2c83f17e8bd67:0x77fdfa9dee996df3, 0x80c2c8471966d5af:0x33c009508895af3b, 0x80c2c86aee1dc0fd:0x5a0a41eb48e43c53, 0x80c2c9075807ed0b:0x39785d922f44e660","Takeout, Dine-in, Delivery",Dining Venue,5300 S Broadway,Los Angeles,Los Angeles
94830,0x80dcad6668cbae5d:0xac06c6b19e181bcd,El Rey del Pollo,"El Rey del Pollo, 1145 N Mt Vernon Ave, Colton, CA 92324",34.0767257,-117.3156366,Restaurant,4.7,28,Closed ⋅ Opens 10AM Mon,Sin resultados vinculados,"Delivery, Takeout, Dine-in",Dining Venue,1145 N Mt Vernon Ave,Colton,San Bernardino
95199,0x808fbf4f123a9263:0x6ccf45242ea2ab9f,La Farfalla Bakery,"La Farfalla Bakery, 39055 Cedar Blvd #182, Newark, CA 94560",37.5232278,-122.0078607,Bakery,3.5,18,Closed ⋅ Opens 9AM Mon,"0x808fbf0f60dd5b87:0x26c075e4a4002ca4, 0x808fbf12445673a5:0x510cf969a766f4e9, 0x808fc09c29b94803:0x6d714f89dec4a647, 0x808fbe2cf981b945:0xcfbef82ec813d738, 0x808fbf5dc3073353:0x97ff0a9c84de14d","Delivery, In-store shopping, Takeout",Bakery Shop,39055 Cedar Blvd #182,Newark,Alameda
95742,0x80c29b94d6a1d415:0xb6c85412e7f12920,Northern Cafe,"Northern Cafe, 9305 Reseda Blvd, Northridge, CA 91324",34.2394129,-118.5363711,Chinese restaurant,4.0,18,Open ⋅ Closes 9PM,Sin resultados vinculados,"Delivery, Takeout, Dine-in",Dining Venue,9305 Reseda Blvd,Northridge,Los Angeles
96833,0x80c2c84fc6975997:0x69176b0c7d86d5a7,Los Angeles Crepes,"Los Angeles Crepes, 10122 Slauson Ave, Los Angeles, CA 90011",33.9890708,-118.2654998,"Crêperie, Fast food restaurant",4.8,38,Open ⋅ Closes 10:30PM,"0x80c2c7ad324556ab:0x908b9ea229a088c, 0x80c2c78b09e995b1:0xc38f2f0da1c23157, 0x80c2c7399c5bf43f:0xde974ad53a20acf7, 0x80c2bf24a7f4184b:0x95b1fbe5d5b40e08","In-store shopping, Takeout, Dine-in, Delivery",Dining Venue,10122 Slauson Ave,Los Angeles,Los Angeles
98250,0x80c336d50aec83b9:0x5119881a70a279c5,Starbucks,"Starbucks, 1931 N Campus Ave, Upland, CA 91784",34.133245,-117.641166,"Coffee shop, Cafe, Coffee store, Espresso bar",3.9,18,Open ⋅ Closes 9PM,"0x80c330557b6c27e5:0xc14fd3c722fca12a, 0x80c331c229db007b:0xc4a54b45362cc6b, 0x80c331540a6d9ef3:0x1056d2afc36a1174, 0x80c331611995d0ed:0xbb1801397ddba74b","Takeout, Dine-in, Delivery",Café & Coffee,1931 N Campus Ave,Upland,San Bernardino
98459,0x54d3ff99c45c3239:0xb16a1d93addaa2e1,Mi Little Oaxaca Bakery & Cafe,"Mi Little Oaxaca Bakery & Cafe, 3943 Walnut Dr A, Eureka, CA 95503",40.7709465,-124.1425934,Bakery,4.9,18,Open ⋅ Closes 7PM,Sin resultados vinculados,"In-store shopping, Takeout, Dine-in, Delivery",Bakery Shop,3943 Walnut Dr A,Eureka,Humboldt
99604,0x80dc77530f8aa40d:0x7bee8ee74ca9b4ba,Brewed Vista,"Brewed Vista, 324 Main St, Vista, CA 92084",33.2032246,-117.2411101,"Restaurant, Beer hall, Coffee shop, Tea house",4.9,18,Open ⋅ Closes 7PM,Sin resultados vinculados,"Delivery, Takeout, Dine-in",Dining Venue,324 Main St,Vista,San Diego
102024,0x8090138d73bf3529:0xdf7f15bf52ffc4f,Blazin' Cajun Restaurant,"Blazin' Cajun Restaurant, 125 Bridge Pl, Stockton, CA 95202",37.9545574,-121.2895174,Restaurant,4.2,48,Closed ⋅ Opens 3PM,Sin resultados vinculados,"Outdoor seating, Delivery, Takeout, Dine-in",Dining Venue,125 Bridge Pl,Stockton,San Joaquin
102283,0x808fcd0199ca1edd:0x195e2a647a7b1b3e,Viva Mexico Paleteria y Antojitos Mexicanos,"Viva Mexico Paleteria y Antojitos Mexicanos, 1201 E Julian St, San Jose, CA 95116",37.3518967,-121.8709604,Mexican restaurant,4.6,36,Closed ⋅ Opens 10AM,Sin resultados vinculados,"Delivery, Takeout, Dine-in",Dining Venue,1201 E Julian St,San Jose,Santa Clara
104876,0x80c2cd093bcb768d:0x70529206613cc2e0,Soup Shop,"Soup Shop, 5840 Firestone Blvd #102, South Gate, CA 90280",33.9486911,-118.1635122,"Vietnamese restaurant, Pho restaurant, Soup restaurant, Soup shop",4.5,38,Closed ⋅ Opens 11AM,Sin resultados vinculados,"No-contact delivery, Delivery, Takeout, Dine-in",Dining Venue,5840 Firestone Blvd #102,South Gate,Los Angeles
105272,0x80dcaa707da1610b:0x54b2a4526abd76c2,Subway,"Subway, 1256 Orange St Unit C, Redlands, CA 92373",34.0696539,-117.1820576,"Sandwich shop, Caterer, Fast food restaurant, Takeout Restaurant, Restaurant",3.5,18,Closed ⋅ Opens 9AM,"0x80dcabbb8c5f3825:0xba680860df96397d, 0x80dcaab7f51f8af1:0xf618293a083061d0, 0x80dcab7c14775571:0x5a4a7d3cdc779dd3, 0x80dcaa4375fbf51f:0x1e57114a2205f8d5","Curbside pickup, Delivery, Takeout, Dine-in",Dining Venue,1256 Orange St Unit C,Redlands,San Bernardino
106113,0x80c2b7c59de10969:0x346b572a9b04cee1,Martin's Cocina y Cantina,"Martin's Cocina y Cantina, 162 N La Brea Ave, Inglewood, CA 90301",33.9641424,-118.3531575,Restaurant,4.8,35,Closed ⋅ Opens 11AM,Sin resultados vinculados,"Curbside pickup, No-contact delivery, Delivery, Takeout, Dine-in",Dining Venue,162 N La Brea Ave,Inglewood,Los Angeles
107352,0x80ea41dd29d1f6ef:0xdfc62d50288639ee,Love Korean B.B.Q,"Love Korean B.B.Q, 4915 Ming Ave, Bakersfield, CA 93309",35.3390314,-119.0570835,Restaurant,3.2,48,Closed ⋅ Opens 11:30AM,Sin resultados vinculados,"Takeout, Dine-in, Delivery",Dining Venue,4915 Ming Ave,Bakersfield,Kern
107992,0x80997b29f01b4155:0xf54f80a189d85d55,Subway,"Subway, 8700 N Lake Blvd, Kings Beach, CA 96143",39.2348826,-120.0196793,"Sandwich shop, Caterer, Fast food restaurant, Takeout Restaurant, Restaurant",2.8,38,Closed ⋅ Opens 10AM,"0x80997b2bbbc21cf3:0x24e01cd43e96011f, 0x80997b2bb58c1415:0xd25e7fb1095e7bbe, 0x80997ad6460db27f:0xf0cb7efcfc2d61fd, 0x809964b0dd3dd8d9:0x98337736b1542387, 0x80997b2b7c6ce889:0x6de0bd66b5778308","Curbside pickup, Takeout, Delivery",Dining Venue,8700 N Lake Blvd,Kings Beach,Placer
108079,0x80910d761212609b:0x4e3808152b6703eb,Hugo's Mexican Grill,"Hugo's Mexican Grill, 1472 B St G, Livingston, CA 95334",37.3856331,-120.7213674,Mexican restaurant,4.3,25,Closed ⋅ Opens 10AM,Sin resultados vinculados,"Takeout, Dine-in, Delivery",Dining Venue,1472 B St G,Livingston,Merced
108677,0x80c2bb70b21e9ac9:0xe49eef5fd1ebbd2e,Capital One Cafe - CLOSED,"Capital One Cafe - CLOSED, 11175 Santa Monica Blvd, Los Angeles, CA 90025",34.047506,-118.445968,"Coffee shop, Bank",4.5,27,None,"0x80c2bdec208c49d7:0x93ab0df34172f518, 0x80c2bfaa0141cdfd:0xd38ed07d31c9c6d1, 0x80c2be3fdfd7c0ef:0x9ccf3c4987de8430, 0x80c2bbed9e42ff2f:0x17f71192b954be9c, 0x80c297b7b5a984d3:0x403306372b96f353",Delivery,Café & Coffee,11175 Santa Monica Blvd,Los Angeles,Los Angeles
109822,0x80c2b9206b1f242b:0x50605e30cc47f0db,Daedo Sikdang,"Daedo Sikdang, 4001 W 6th St, Los Angeles, CA 90020",34.0638199,-118.3107152,Restaurant,4.3,45,Closed ⋅ Opens 5PM,Sin resultados vinculados,"Takeout, Dine-in",Dining Venue,4001 W 6th St,Los Angeles,Los Angeles
110647,0x80c29e69694c6809:0x7703b01cbb331c51,Menchie's Frozen Yogurt,"Menchie's Frozen Yogurt, 4776 Commons Way Ste D, Calabasas, CA 91302",34.155117,-118.643036,"Frozen yogurt shop, Bakery, Cake shop, Caterer, Dessert restaurant, Dessert shop, Ice cream shop, Kosher restaurant",3.3,18,Closed ⋅ Opens 11AM,"0x80c29e6baa521f53:0x3be750c6cd3f761f, 0x80c29c34ee730dcb:0x532a98bacef23132, 0x80c29e8ff8d2309b:0x8368eb46128e10e3","In-store shopping, Takeout, Dine-in",Dining Venue,4776 Commons Way Ste D,Calabasas,Los Angeles
111233,0x80c2c7a55b28dcf1:0x17dc8000c6fb0be6,The Capital Grille,"The Capital Grille, 700 W 9th St Unit B, Los Angeles, CA 90015",34.0460722,-118.2624906,"Fine dining restaurant, American restaurant, Chophouse restaurant, Seafood restaurant, Steak house, Wine bar",4.6,18,Closed ⋅ Opens 4PM,Sin resultados vinculados,"Takeout, Dine-in, Delivery",Dining Venue,700 W 9th St Unit B,Los Angeles,Los Angeles
111933,0x8094609f73baa4fd:0x44885238963cd02a,Cafe EOC,"Cafe EOC, 1900 Mariposa Mall #106, Fresno, CA 93721",36.7338135,-119.7920294,Restaurant,4.5,15,Temporarily closed,"0x8094673eb39fa573:0xfdae924fbebf8d26, 0x8094609f721ace5f:0x3a6433cb9d16456c, 0x809461f9aeae2967:0x9d71558d6adbca2b, 0x8094609ea9b5d74b:0x603161848366c581",Delivery,Dining Venue,1900 Mariposa Mall #106,Fresno,Fresno
112582,0x80d94544588ecf39:0x77b12cc8b6a2ca79,The Protein Plate,"The Protein Plate, 2322 Proctor Valley Rd, Chula Vista, CA 91914",32.6615139,-116.9705307,"Restaurant, Health food restaurant",4.4,46,Temporarily closed,"0x80d9456dbefdd761:0x4145e05c109d6245, 0x80d9456c25eb41c3:0x933f3348ec07d34a, 0x80d9456db053c36d:0xe5f8a439119560df, 0x80d94e29eff84037:0xccdb85bd4ab4ea87","Outdoor seating, Delivery, Takeout",Dining Venue,2322 Proctor Valley Rd,Chula Vista,San Diego
113701,0x80900c67de1f9f1f:0x291ab6055c947633,"Tonantzin ""Taco Goddess""","Tonantzin ""Taco Goddess"", 6502 Pacific Ave, Stockton, CA 95207",38.0094985,-121.3194022,Mexican restaurant,4.8,28,Closed ⋅ Opens 11:30AM Mon,"0x80900c55e0b8669b:0x39d34e1f29df2dc2, 0x80900c3312f462cf:0x902f766fd9ae2f86, 0x80900c93f8feb2d7:0x4956a65a15b2c17d, 0x80900c6fb25b892b:0xdb7af13f594f8444, 0x80900cb89c8b79db:0x94ec25e0637b0328","Takeout, Delivery",Dining Venue,6502 Pacific Ave,Stockton,San Joaquin
114377,0x808fb5eca1eaee93:0x95c61effe7c9518d,Chicken Meets Rice (Cupertino),"Chicken Meets Rice (Cupertino), 10445 S De Anza Blvd Unit 101, Cupertino, CA 95014",37.3167233,-122.0338357,"Chicken shop, Asian fusion restaurant, Asian restaurant, Chinese restaurant",4.6,24,Closed ⋅ Opens 11AM Sun,Sin resultados vinculados,"Delivery, Takeout",Dining Venue,10445 S De Anza Blvd Unit 101,Cupertino,Santa Clara
115331,0x80c295c55a9ef071:0x9a38359316a49ac3,Tacos fiesta LA,"Tacos fiesta LA, 10610 W Magnolia Blvd, North Hollywood, CA 91601",34.1646981,-118.362022,Taco restaurant,4.8,38,Open ⋅ Closes 12AM,"0x80c2958722efe9af:0x44ca1b34fcef513a, 0x80c2bfcba5eb7dd1:0x88a02fef9b1eb04b, 0x80c2955c1f60d655:0x34271f825d576f63, 0x80c295f2b7d56861:0x2d705113fb4c2f76, 0x80c2be233a5c9773:0x9bb205333f947e83","Takeout, Dine-in, Delivery",Dining Venue,10610 W Magnolia Blvd,North Hollywood,Los Angeles
117143,0x80dd28ab9dfbd7f1:0x24efe688fba0ed6f,Yaki Tori,"Yaki Tori, 6502 Westminster Blvd., Westminster, CA 92687",33.7588528,-118.0156251,Restaurant,4.7,38,Closes soon ⋅ 8PM ⋅ Opens 11AM Sun,"0x80dd28b0aa861439:0xf8c6766932dc88d, 0x80dd28ab701d9629:0x2caf5afd2ca17498, 0x80dd28a806027227:0xf28ff46f5d417a98","Outdoor seating, Takeout, Dine-in, Delivery",Dining Venue,6502 Westminster Blvd.,Westminster,Orange
119403,0x80dcd91af4928e8b:0xa62157f8c4bb06ec,El Paraiso Food Truck,"El Paraiso Food Truck, 111 W Highland St, Santa Ana, CA 92701",33.7371544,-117.8681543,Mexican restaurant,4.6,71,Closed ⋅ Opens 10AM Sun,"0x80dcd91a4f694393:0x67bddbf9f044a5c4, 0x80dcd90598c6bdb7:0x8b7122b0cb3a4e24, 0x80dcd8da655f0001:0x5fc71cdae5ee4382, 0x80dcd923041b83e7:0x7df0241fc6e3dcb, 0x80dcd9083f69c4bf:0x1ea86596b4e049","Takeout, Dine-in, Delivery",Dining Venue,111 W Highland St,Santa Ana,Orange
119449,0x808fe79f0aaf495d:0xdc531d5b310d6284,Auntie Anne's,"Auntie Anne's, 2792 Livermore Outlets Dr, Livermore, CA 94551",37.698363,-121.8464404,"Pretzel store, Bakery, Cafe, Restaurant",2.9,13,Open ⋅ Closes 8PM,"0x808fe8e855aed975:0xde162e5a6f0c30bc, 0x808fe8dd5393413f:0x53efc1fcd5ef35b7, 0x808fe79f0aaf49bf:0xf97a2ca0e5fc6437, 0x808fe8dd5393413f:0xe24fe352ec7172c","Curbside pickup, In-store pickup, In-store shopping",Dining Venue,2792 Livermore Outlets Dr,Livermore,Alameda
121828,0x80dca16fc496fb71:0x805ba42eff3916b5,The Derby Room - Perris,"The Derby Room - Perris, Lake Perris Dr, Perris, CA 92571",33.8473431,-117.2019668,Restaurant,4.7,38,Open ⋅ Closes 11PM,Sin resultados vinculados,"Outdoor seating, Curbside pickup, Delivery, Takeout, Dine-in",Dining Venue,Lake Perris Dr,Perris,Riverside
122151,0x808e21716486f45b:0x6a7782141d09e5b3,Vitality Bowls Morgan Hill,"Vitality Bowls Morgan Hill, 1053 Cochrane Rd #180, Morgan Hill, CA 95037",37.15641,-121.65245,"Health food restaurant, Cafe, Gluten-free restaurant, Juice shop, Sandwich shop, Vegan restaurant, Vegetarian restaurant",4.1,34,Open ⋅ Closes 8PM,"0x808e20c8e509b2f9:0xf84519b0346a3d42, 0x808e21a72e01a4f3:0x93108017df361bf6, 0x808e20c8c2d11fcb:0xed990014362e188b, 0x808e206efa6d3a93:0x10e2919a61f1aafe","Outdoor seating, Curbside pickup, No-contact delivery, Delivery, Takeout, Dine-in",Dining Venue,1053 Cochrane Rd #180,Morgan Hill,Santa Clara
123959,0x80dc0b61edb94747:0xf1c2a05e07cbc66a,Pizza Hut,"Pizza Hut, 7750 El Camino Real suite e, Carlsbad, CA 92009",33.082254,-117.266449,"Pizza restaurant, Chicken wings restaurant, Delivery service, Restaurant",3.6,28,None,"0x80dc0b80e4c9a3a5:0x4ff1c420ce924bd5, 0x80dc0b550b1715f3:0xf6604f490647dc73, 0x80dc7372537dab37:0x5ef55985fcce3bc5, 0x80dc0c9ff713d121:0xed12ba1386d4ed44, 0x80dc732a2f95fa65:0xff5a49da0ee4c9de","Takeout, Delivery",Dining Venue,7750 El Camino Real suite e,Carlsbad,San Diego
125951,0x80857e78746b554d:0x88421480ba0b41d1,M & S Kitchen,"M & S Kitchen, 6336 Shattuck Ave, Berkeley, CA 94705",37.8493289,-122.2654995,Chinese restaurant,4.0,38,Closed ⋅ Opens 11AM,"0x80857dd351ec9a8d:0xe720359168590b3, 0x80857e82c27f75c9:0x3b3b5cd77d6f371f, 0x80857c2f2ecdae3f:0x37d76e9b2db9e01e, 0x80857dce0c182d7b:0x60803848b29861ab, 0x80857dcd91a06b19:0xd8ca92de839883bd","Delivery, Takeout",Dining Venue,6336 Shattuck Ave,Berkeley,Alameda
126721,0x808f80b39a84987b:0xdbabb8f2c908e3d8,Garden House,"Garden House, 380 15th St, Oakland, CA 94612",37.8049171,-122.2689921,"American restaurant, Sandwich shop",4.5,18,Temporarily closed,"0x808f80cbdc0a3b65:0x282440663403c400, 0x808f80ae3b840239:0x74bcd1a0f76bafd1, 0x808f80ad5d193b37:0xe339a0be25abe9be, 0x808f80ae5ae98e41:0x77d349a4ec94a7e3, 0x808f80b300277981:0x12ca97333635a21f","Takeout, Delivery",Dining Venue,380 15th St,Oakland,Alameda
126761,0x80c36590dc81235f:0xe18fc917e84a83b9,Taco Grande,"Taco Grande, 15177 Hook Blvd, Victorville, CA 92394",34.5211417,-117.3331384,Mexican restaurant,4.2,27,Closed ⋅ Opens 9AM,Sin resultados vinculados,"Takeout, Dine-in, Delivery",Dining Venue,15177 Hook Blvd,Victorville,San Bernardino
132846,0x80945e9e8e746293:0x341f4e49be89ab67,Skyline Cafe Bar & Grill,"Skyline Cafe Bar & Grill, 5090 E Clinton Way, Fresno, CA 93727",36.770696,-119.724163,Traditional American restaurant,4.4,18,Closed ⋅ Opens 6AM,"0x80945e981286158d:0xcf8ac6874e97533, 0x80945ea1e83b1865:0xaeb985690c98a87d, 0x80945e9b87c7c2eb:0x8a342fdf97a04ef8, 0x809467ff0ac1cdbd:0xbb9f112242f2b3d3, 0x80945e9bb29d3317:0xdfb921745760f119","Takeout, Dine-in, Delivery",Dining Venue,5090 E Clinton Way,Fresno,Fresno
133111,0x80845a0cff5dcc35:0x6eaf9d7bfda57691,The Grill at Meadowood,"The Grill at Meadowood, 900 Meadowood Ln, St Helena, CA 94574",38.5225211,-122.4672288,"American restaurant, Bar, Californian restaurant",4.7,38,Temporarily closed,"0x808450bda674cddb:0x2a2f7392f30cf751, 0x808450b935f47b93:0x5037d70c390f3f5, 0x80845097e45c18eb:0xf94b85767a5f3d79, 0x808450bd997eb1bf:0x61027d6b86d8afa0, 0x80845698b7c6cf11:0x745f1bcf2fee460d","Takeout, Dine-in, Delivery",Dining Venue,900 Meadowood Ln,St Helena,Napa
133421,0x80ea41b4faac77d3:0x866586c2efa56e53,La Gran Villa,"La Gran Villa, 6300 White Ln suite p, Bakersfield, CA 93309",35.3192259,-119.0735838,Mexican restaurant,4.0,47,Closed ⋅ Opens 8:30AM,"0x80ea41dc389209c1:0x3c02e44261f0b29f, 0x80ea6a55915744f9:0xc48b01a36aa2de78, 0x80ea41b30315240d:0x91dee7bcd3bb0be7, 0x80ea151c431158af:0xa52ce6305380b36f, 0x80ea41a97bc476db:0xaf79f47e56fe2098","Delivery, Takeout, Dine-in",Dining Venue,6300 White Ln suite p,Bakersfield,Kern
134290,0x808e1b26d417532d:0xa3b491c904ece8a0,Monterey Bay Caterers,"Monterey Bay Caterers, 152 W Lake Ave, Watsonville, CA 95076",36.90906,-121.762325,Restaurant,4.7,28,Closed ⋅ Opens 7AM Mon,"0x808e1b13bc9509b1:0xd38d82b292a6ce2d, 0x808e1b1cf05de959:0x141b3d8288a02aae, 0x808e1b26b5b13b1d:0x9ca3575a97da553d, 0x808e1b277b62834b:0x92923b9680c38527","Takeout, Dine-in, Delivery",Dining Venue,152 W Lake Ave,Watsonville,Santa Cruz
134498,0x80dcc7e691b9fa63:0x185cc3c44a6ee497,Tasteful Cakes Inc,"Tasteful Cakes Inc, 265 E Ontario Ave #104, Corona, CA 92879",33.856894,-117.5683234,"Bakery, Cake shop, Wedding bakery, Wholesale bakery",4.3,48,Closed ⋅ Opens 10AM,"0x80dcb7c00d181475:0x6b90b8f138e965e2, 0x80dcc7f591ca3475:0x9bf7728bbea2c3c8, 0x80dccfa0b7b398a3:0xb20e45b3059166dc, 0x80dcb3ff4e81fa67:0x8721b628fd8146c5","Curbside pickup, In-store pickup, In-store shopping, Takeout, Dine-in",Bakery Shop,265 E Ontario Ave #104,Corona,Riverside
136345,0x80ec6c90331c39f5:0x5270a39510a9c6fd,Starry Sky Coffee Company,"Starry Sky Coffee Company, 800 South College Drive Inside Hancock College Student Center, Santa Maria, CA 93454",34.9438545,-120.4214254,"Coffee shop, Espresso bar, Restaurant, Tea house",4.5,18,Closed ⋅ Opens 7:30AM Mon,"0x80ec6cf35fd8af4d:0x2df974e063827360, 0x80ec6ca7fca40873:0x95a0d981c3a14cae, 0x80ec6c8baec94a27:0x5d9fe2d5bde78679, 0x80ec6b5ffb478843:0x76c0904cd9c92e30, 0x80ec6c7de719eb27:0x2607b389a94fb9d6","Takeout, Dine-in, Delivery",Dining Venue,800 South College Drive Inside Hancock College Student Center,Santa Maria,Santa Barbara
136858,0x80c2cf12bb3ab789:0x510b99527bece612,Commerce Birrieria,"Commerce Birrieria, 7720 Telegraph Rd, Commerce, CA 90040",33.9754129,-118.1243603,Mexican restaurant,4.6,28,Closed ⋅ Opens 9AM Sat,Sin resultados vinculados,"Takeout, Dine-in",Dining Venue,7720 Telegraph Rd,Commerce,Los Angeles
137361,0x80dcb059a76e7fdb:0x85a4e386bc4f4231,"Ahumadas Mexican Grill and Tacos,","Ahumadas Mexican Grill and Tacos,, 7614 Evans St, Riverside, CA 92504",33.9313656,-117.404656,Mexican restaurant,4.5,68,Closed ⋅ Opens 6AM Sat,"0x80dcb1acb6ae0ab7:0x8d0138e5254b0a72, 0x80dcb04e9acfedfb:0x89eb7c365dfe426c, 0x80dcb122828cc52f:0xbe44319d01e285d2, 0x80dcb04c74bd9953:0x518aeb08dcdf47c4","Takeout, Dine-in, Delivery",Dining Venue,"Ahumadas Mexican Grill and Tacos,, 7614 Evans St",Riverside,Riverside
137367,0x80dca505cc0104b9:0x3075263ca7a5f62e,Subway,"Subway, 19530 Van Buren Boulevard Unit G1, Riverside, CA 92508",33.8898205,-117.3219927,"Sandwich shop, Caterer, Fast food restaurant, Takeout Restaurant, Restaurant",3.7,51,Closed ⋅ Opens 8AM Sat,"0x80dcb735d0356cf3:0x42db4670e90731bf, 0x80dca504d92f684b:0x3e6dae7322ead904, 0x80dca5054ffe69e5:0x750e10c60843d124, 0x80dca51a2c2e1cc9:0x7b6ffbe7f9f34efe, 0x80dca5043138aab7:0x22e003d48cda7857","Curbside pickup, Delivery, Takeout, Dine-in",Dining Venue,19530 Van Buren Boulevard Unit G1,Riverside,Riverside
140867,0x80dcb541f4fc571b:0x2094cc59d593fc2f,Stein's & Beers Kitchen,"Stein's & Beers Kitchen, 3267 Van Buren Boulevard, Riverside, CA 92509",33.9982018,-117.4855459,Restaurant,4.2,28,Closed ⋅ Opens 1PM Sat,Sin resultados vinculados,"Takeout, Dine-in",Dining Venue,3267 Van Buren Boulevard,Riverside,Riverside
144276,0x809ad973158b44ad:0xf7523ebf28b87eb,Vinny's Pizza,"Vinny's Pizza, 3038 Auburn Blvd, Sacramento, CA 95821",38.6330898,-121.3926997,Pizza restaurant,4.0,28,Open ⋅ Closes 9PM,"0x809ad9b7954f3a93:0xa9c459e9c211ac80, 0x809ad965fb379f67:0x5a3b885bf5be087b, 0x809ada2b26b79b6f:0x5a50c7f6560449a5, 0x809ad989aba327db:0x68eff7bd1593659a, 0x809adb901e5c456b:0x39fae2468ffda659","Delivery, Takeout",Dining Venue,3038 Auburn Blvd,Sacramento,Sacramento
144620,0x808f940cfcdd1503:0x5f8a94ffb39551c7,Subway,"Subway, 26953 Mission Blvd Suite C, Hayward, CA 94544",37.6445583,-122.0622282,"Sandwich shop, Caterer, Fast food restaurant, Takeout Restaurant, Restaurant",4.0,27,Open ⋅ Closes 9PM,"0x808f91a9dd4736fb:0xeb42b3818f416374, 0x808f917e053cd431:0xa60d51449bcddce9, 0x808f91101596f859:0xbdad77293b1f1e0c, 0x808f940a301aeac7:0xb71c41748885a5be, 0x808f915a0566c293:0xfd2f47fb50299c26","Curbside pickup, Delivery, Takeout, Dine-in",Dining Venue,26953 Mission Blvd Suite C,Hayward,Alameda
144744,0x80c2c33f726b971d:0xd640afa885af0eea,Polkatots Cupcakes,"Polkatots Cupcakes, 720 N Lake Ave Suite 3, Pasadena, CA 91104",34.1583573,-118.1320351,"Cupcake shop, Bakery, Cake shop, Candy store, Dessert shop, Wedding bakery",4.2,48,Open ⋅ Closes 6PM,"0x80c2c371cbb7bf01:0xbb70cb42f339ad83, 0x80c2c35a5f71776f:0x7acdaa266175781e, 0x80c2c3302f9ea729:0xd94a819e7836c7aa, 0x80c2dcd4b64dd603:0xa51de20ffa5cfba9","Curbside pickup, No-contact delivery, Delivery, In-store pickup, In-store shopping, Takeout, Same-day delivery",Bakery Shop,720 N Lake Ave Suite 3,Pasadena,Los Angeles
145916,0x80c28fe6e4b65359:0x6f5e8e09862afeed,La Miel Jireh Honey Shop,"La Miel Jireh Honey Shop, 12915 San Fernando Rd, Sylmar, CA 91342",34.3048453,-118.4668789,Health food store,4.8,18,Open ⋅ Closes 7PM,"0x80c291091e26ae5f:0xd695dbac9fd1580d, 0x80c29cd9647cd5af:0x164bf3c0ce587893, 0x80c2b7fad258c203:0x69d1deb6a8929f2e, 0x80c2954f87855555:0x7d0bec79dbedfe57, 0x80c29705b1dd6e2b:0x4c06399c87458dc8",In-store shopping,Health Foods,12915 San Fernando Rd,Sylmar,Los Angeles
146518,0x80dd4acc053ef159:0xe4bedf07d8e405aa,Qchon Chicken,"Qchon Chicken, 2515 Torrance Blvd, Torrance, CA 90503",33.8372113,-118.3293494,Chicken restaurant,4.7,24,Open ⋅ Closes 7:30PM,"0x80dd4b1082834d2d:0xebee8113183acda6, 0x80dd35f50ce5bf35:0x9f044d35ff3c6594, 0x80c2b5831770930d:0x9d080a3feaf365c8, 0x80c2b89acd1d4b55:0x315eb2f9169a61e0, 0x80dd4ab0c359c465:0x80fa555f4131c277","Takeout, Dine-in, Delivery",Dining Venue,2515 Torrance Blvd,Torrance,Los Angeles
147368,0x809040ffb8818115:0xe2689d01c2ec6503,The Olive Oil Pantry,"The Olive Oil Pantry, 1161 S Main St, Manteca, CA 95337",37.7872999,-121.2184205,"Gourmet grocery store, Health food store",5.0,27,Open ⋅ Closes 5PM,"0x8090419f7d1932f3:0x83b9447eadc9f02e, 0x80905459393ce671:0x8577ad2176025e51, 0x809041161352da77:0x4081b216831dddf3, 0x8090154f3569596b:0x7c808486e5cb544d","Curbside pickup, No-contact delivery, In-store pickup, In-store shopping",Health Foods,1161 S Main St,Manteca,San Joaquin
147601,0x80c2b9a67833e50f:0x94e61a4295490691,Raspados El Chilango,"Raspados El Chilango, 1075 N Western Ave, Los Angeles, CA 90029",34.0903911,-118.3097105,"Sundae restaurant, Ice cream shop",4.8,28,Open ⋅ Closes 7PM,"0x80c2c782be81d727:0x891b02e609dec4e4, 0x80c2c5d5c0e1f65b:0xcf4e37e8d9948b68, 0x80c2c82b5bf456bb:0x646ea044aa4d90f9, 0x80c2ce9bbbd9772f:0x9a839da455f3d2f, 0x80c2c9437b20f9bd:0xa96a1fb03c524558","Takeout, Dine-in, Delivery",Dining Venue,1075 N Western Ave,Los Angeles,Los Angeles
149329,0x80e8313f682aee35:0x6a60b3bd620cee2c,Milan's Pizza,"Milan's Pizza, 8968 Corbin Ave, Northridge, CA 91324",34.2336605,-118.5619502,Pizza restaurant,4.4,18,Open ⋅ Closes 10PM,Sin resultados vinculados,"No-contact delivery, Delivery, Takeout, Dine-in",Dining Venue,8968 Corbin Ave,Northridge,Los Angeles
152419,0x8085809f412040b1:0x78641dc1676347cc,Paul K Restaurant,"Paul K Restaurant, 199 Gough St, San Francisco, CA 94102",37.7748877,-122.4229191,Restaurant,4.0,18,None,Sin resultados vinculados,Delivery,Dining Venue,199 Gough St,San Francisco,San Francisco
152597,0x80dd2d046b3f7b6d:0xa5879df4d282642,Kusina Filipina Cerritos,"Kusina Filipina Cerritos, 11305 183rd St, Cerritos, CA 90703",33.8659358,-118.0930842,"Filipino restaurant, Caterer, Event venue",4.3,25,Closed ⋅ Opens 11AM,Sin resultados vinculados,"Curbside pickup, No-contact delivery, Delivery, Takeout, Dine-in",Dining Venue,11305 183rd St,Cerritos,Los Angeles
152893,0x80dcd601a381ede7:0x32c30b2a8c48e1a,Nutrishop,"Nutrishop, 30 E Orangethorpe Ave #3, Anaheim, CA 92801",33.8590894,-117.9194837,"Vitamin & supplements store, Health food store, Weight loss service",4.8,37,Closed ⋅ Opens 10AM,"0x80dcd600efb7fe19:0xd3ea02749a1280a3, 0x80dcd79f2768b6ef:0x169dd06a6fde853f, 0x80dcd508a410ffc1:0x3f50cf0ffd43d9b2",In-store shopping,Health Foods,30 E Orangethorpe Ave #3,Anaheim,Orange
153265,0x8085ac1d43158ccb:0x997946d58a972fa9,Taub Family Outpost,"Taub Family Outpost, 497 1st St W, Sonoma, CA 95476",38.2921503,-122.4592134,Restaurant,4.4,44,Closed ⋅ Opens 8AM,"0x8085ac029152a493:0xd4eafd995a80a32e, 0x8085aea75d783a33:0xa28384b8495b9a5b, 0x8085ac028dc6e657:0x48e8330ca990660d, 0x8085aea831b6f0cb:0x424dad6f67551457, 0x8085ac029d77afd3:0x1b4effed90279906","Takeout, Dine-in, Delivery",Dining Venue,497 1st St W,Sonoma,Sonoma
156741,0x808580dcee2c0cc9:0x3c97cbb17a203f82,Fort Mason Market & Deli,"Fort Mason Market & Deli, 1701 Greenwich St, San Francisco, CA 94123",37.7998846,-122.4277883,"Market, Grocery store, Sandwich shop",4.1,27,Closed ⋅ Opens 8AM,"0x808580dcdb7b58cb:0x883723022bea12d7, 0x808580d423725385:0xa815a3c48483541e, 0x808581c706948c41:0x6a8722db6ebbf33c, 0x808580dd0f265ca7:0x413956a32f9c380f, 0x808580c4ae5547d3:0xb2cecae2e6da5287",In-store shopping,Sandwich Bar,1701 Greenwich St,San Francisco,San Francisco
157770,0x809aa2d70b69dc5f:0xe759d62bb1626c6,Something Sweet,"Something Sweet, 440 C St, Galt, CA 95632",38.252294,-121.304727,Wedding bakery,4.6,26,Closed ⋅ Opens 11AM,"0x809aa2d0f2fbe77b:0xb2f4c076550519d2, 0x15332d925a6cb663:0xabe64a99e6fc3985, 0x809aa2d77a83415b:0x83f42b144ba6f6b2, 0x809aa014c45c1d4f:0x63dae4c07670fd35","Curbside pickup, Delivery, In-store pickup, In-store shopping, Takeout",Bakery Shop,440 C St,Galt,Sacramento
158574,0x808580866d9cc219:0x54658941870afe77,Cako Bakery,"Cako Bakery, 135 4th St, San Francisco, CA 94103",37.7843413,-122.4034851,Bakery,3.3,38,Temporarily closed,"0x80858089b4baa38d:0x3f1c37717fcea2e6, 0x808f7e281a94225d:0x92aa236bfb2eb4c6, 0x808580d41fc5dfa5:0x8cf4daec6e4499aa, 0x808580c7ca5f4549:0x101aead34b8afc1c","Delivery, Takeout, Same-day delivery",Bakery Shop,135 4th St,San Francisco,San Francisco
158996,0x80dc75be6d46cd09:0xa6b56ea5fefdf719,Bantam's Roost,"Bantam's Roost, 2628 Gateway Rd Suite 120, Carlsbad, CA 92009",33.1281686,-117.2542792,Restaurant,4.6,38,Closed ⋅ Opens 11AM Thu,Sin resultados vinculados,"Outdoor seating, Curbside pickup, No-contact delivery, Takeout, Dine-in, Delivery",Dining Venue,2628 Gateway Rd Suite 120,Carlsbad,San Diego
159239,0x80d95459d428fe6b:0x83bee098bd793eec,Taquería Zapata,"Taquería Zapata, 3245 El Cajon Blvd, San Diego, CA 92104",32.7547453,-117.1231788,Taco restaurant,4.7,18,Closed ⋅ Opens 10AM Thu,"0x80d9543ece9eb4c1:0x62fc47171abe9dc0, 0x80d954f67d80aeb9:0xc80f698f4fc47511, 0x80d953097b8e7e4f:0xc9db5021d7a58507, 0x80d95455167ffb69:0x87a04a627d4f6e31, 0x80d94d62875d6417:0x1db6a82972cf34ca","Takeout, Dine-in, Delivery",Dining Venue,3245 El Cajon Blvd,San Diego,San Diego
159635,0x80ea693e9f7d4cd5:0x9e0a80a1dd104cd4,"Cafeteria, Campus Center, Bakersfield College","Cafeteria, Campus Center, Bakersfield College, 1801 Panorama Dr, Bakersfield, CA 93305",35.4090129,-118.9717893,American restaurant,3.6,25,Closed ⋅ Opens 7:30AM Thu,"0x80ea69451ca0828d:0xfdf9f59e448caf4c, 0x80ea69ff034553cf:0x943455248cde9450, 0x80ea69427460fae9:0xe84cad93bba43a0d, 0x80ea69878e39d111:0xdc087ad6977bab23","Outdoor seating, Takeout, Dine-in, Delivery",Dining Venue,"Cafeteria, Campus Center, Bakersfield College, 1801 Panorama Dr",Bakersfield,Kern
159685,0x80c2d0b5ae11783b:0x63a813680923a917,Mom's Bakery & Cafe,"Mom's Bakery & Cafe, 11850 Valley Blvd #214, El Monte, CA 91732",34.0635676,-118.021625,Cafe,4.3,26,Closed ⋅ Opens 10:30AM Thu,"0x80c2dabc32225867:0xf325df5c4d3a17ec, 0x80c2d0ac87555a95:0xabe98923e8b756f7, 0x80c2d0a49afbb749:0xd7b1dbbc7f33fcf0, 0x80c2c53f2ed52709:0x4482acb260338172, 0x80c2dabe74fe60a1:0x4233662d5d0214f3","Delivery, Takeout, Dine-in",Café & Coffee,11850 Valley Blvd #214,El Monte,Los Angeles
163609,0x80857dc61b9dba8b:0xf4be206d96bacc6b,Punjabi dhaba,"Punjabi dhaba, 2521 Durant Ave E, Berkeley, CA 94704",37.8682995,-122.258041,Indian restaurant,4.5,38,Open ⋅ Closes 11PM,Sin resultados vinculados,"Outdoor seating, Delivery, Takeout, Dine-in",Dining Venue,2521 Durant Ave E,Berkeley,Alameda
164372,0x80c3518bd8cd2ceb:0x5406c2a5a5f0bbf9,Poketology Poke,"Poketology Poke, 1775 Northpark Blvd W Suite B-6, San Bernardino, CA 92407",34.1790235,-117.3282987,Restaurant,4.3,25,Open ⋅ Closes 9:30PM,"0x80dcab7dfe4c8f37:0xc57e5b95bed122eb, 0x80dcadf8eba0f055:0xc84cc60ba9d0bcff, 0x80c3522737a3150d:0xa28c33dfa9818c86, 0x80c3518bafea546d:0xeac50e588cfd3a8c, 0x80c34cb4ca24cffb:0xc0622643376f9eba","Delivery, Takeout, Dine-in",Dining Venue,1775 Northpark Blvd W Suite B-6,San Bernardino,San Bernardino
165011,0x8090129ec8862b53:0xc822cf7f5e07861f,Subway,"Subway, 222 N El Dorado St Suite B-2, Stockton, CA 95202",37.9547754,-121.2900618,"Sandwich shop, Caterer, Fast food restaurant, Takeout Restaurant, Restaurant",4.4,28,Temporarily closed,"0x809012c63fe2e697:0x4e5a660686a038, 0x809012975d6981e9:0x86f818398d334424, 0x809012c68d0cb537:0x6b9a60484d1ce3d7, 0x809012a872ffb7ad:0xd8157bdac574c3a3, 0x80900c917f0bda89:0x4026b3c155f352cf","Curbside pickup, Takeout, Dine-in",Dining Venue,222 N El Dorado St Suite B-2,Stockton,San Joaquin
165114,0x808fe9c451b5bddb:0x213ffde70c47f60d,ELIA,"ELIA, 310 Main St #A, Pleasanton, CA 94566",37.6590909,-121.8763181,Restaurant,4.4,37,Open ⋅ Closes 10PM,Sin resultados vinculados,"Curbside pickup, Takeout, Dine-in",Dining Venue,310 Main St #A,Pleasanton,Alameda
165850,0x8085573b7df4350b:0x2e578e8eb6e3f19f,Mariscos y antojitos las plebes,"Mariscos y antojitos las plebes, 900 A St, Antioch, CA 94509",38.0116787,-121.8063235,Restaurant,4.3,64,Open ⋅ Closes 8PM,"0x8085577d4461db23:0x6262236709301113, 0x808559cce1256dbd:0xf0c68e5d50106731, 0x8085577d444453f9:0x342d5b3c38a7801e, 0x808fff5f8c66d59b:0xf431fd588a230c3e","Delivery, Takeout, Dine-in",Dining Venue,900 A St,Antioch,Contra Costa
167092,0x80c336d43db2fbcd:0xb0357b8e2775d93f,Subway,"Subway, 1902 N Campus Ave Suite J, Upland, CA 91784",34.1311966,-117.6382248,"Sandwich shop, Caterer, Fast food restaurant, Takeout Restaurant, Restaurant",3.7,48,Open ⋅ Closes 9PM,"0x80c336d5de2b2251:0x86a6ad65f5a66aa, 0x80c336d5d6d49735:0xfb5139e8a4823938, 0x80c336b058529157:0xe3c29322ca7f3701, 0x80c336d673bc9ae9:0xfc9f9a2e1242c982, 0x80c336d67e5c2349:0xd41bdbde1661b92","Curbside pickup, Delivery, Takeout, Dine-in",Dining Venue,1902 N Campus Ave Suite J,Upland,San Bernardino
168206,0x80c2a5dc4b74b01d:0x59e9be7780916f32,Fresh Corn Grill - Santa Monica,"Fresh Corn Grill - Santa Monica, 720 Wilshire Blvd, Santa Monica, CA 90401",34.0218352,-118.4945143,Restaurant,4.5,35,Open ⋅ Closes 8:30PM,Sin resultados vinculados,"No-contact delivery, Delivery, Takeout, Dine-in",Dining Venue,720 Wilshire Blvd,Santa Monica,Los Angeles
168501,0x80c2d5a1a44d7ecf:0x6f1888dc34fdd38,bb.q Chicken Hacienda Heights,"bb.q Chicken Hacienda Heights, 17110 Colima Rd STE C, Hacienda Heights, CA 91745",33.9903668,-117.9345964,Restaurant,4.6,17,Open ⋅ Closes 9:30PM,Sin resultados vinculados,"Delivery, Takeout",Dining Venue,17110 Colima Rd STE C,Hacienda Heights,Los Angeles
168993,0x80c2bff60b43e103:0x30dc5bd577db1b88,Chinda Barbeque & Restaurant,"Chinda Barbeque & Restaurant, 1714 Victory Blvd, Glendale, CA 91201",34.1614277,-118.3009911,Restaurant,4.4,18,None,Sin resultados vinculados,"Takeout, Delivery",Dining Venue,1714 Victory Blvd,Glendale,Los Angeles
169584,0x80832f8fcf0f6011:0xd4001c8b1f5b9a02,Chatterbox Cafe,"Chatterbox Cafe, 2500 Durham-Dayton Hwy, Durham, CA 95938",39.6462557,-121.8075089,Coffee shop,4.6,36,Closed ⋅ Opens 6AM Thu,"0x80832f8fcf0f6011:0xabacec60a8c60f3c, 0x808327ee44a82757:0xc41e2bc5d8a0d4b7, 0x8083270a5838cd97:0xd65505462ca1cefd","Takeout, Dine-in, Delivery",Café & Coffee,2500 Durham-Dayton Hwy,Durham,Butte
170485,0x80859a61b2d1ddc3:0x8b949232a739b603,Nothing Bundt Cakes,"Nothing Bundt Cakes, 47 Tamal Vista Blvd Suite G, Corte Madera, CA 94925",37.9333924,-122.5175183,"Bakery, Cake shop",4.7,35,Open ⋅ Closes 6PM,"0x808599fd3100d61f:0x5f553972b3b9d4da, 0x80859a7298c51237:0x9957943c4457911b, 0x80859ad2d56b49b7:0xb67c778612d60cdb, 0x80859a6dcd245a13:0xc789ebd888eca585, 0x80859715b6e83ea3:0x366cf13f321d3438","Curbside pickup, Delivery, In-store pickup, In-store shopping, Takeout",Bakery Shop,47 Tamal Vista Blvd Suite G,Corte Madera,Marin
173815,0x80c2c99facb3fac7:0x10ed10e71f828908,Pupuseria La Favorita,"Pupuseria La Favorita, 1132 Firestone Blvd, Los Angeles, CA 90001",33.9599991,-118.2551574,Salvadoran restaurant,4.4,84,Closed ⋅ Opens 10AM,"0x80c2c99efdb2e11d:0xf895ecba278dd9d3, 0x80c2c9a111c75047:0x10f99f833f9b8811, 0x80c2c870eb28ace3:0x7db63d7b5df32784, 0x80c2c907c64c5415:0xad800d643476a21c, 0x80c2c82396c216ef:0x56bbc5d33ce18846","Takeout, Dine-in, Delivery",Dining Venue,1132 Firestone Blvd,Los Angeles,Los Angeles
174297,0x808de6b9ee6ff523:0x89ae8cffe6dbe2ff,Alberto's,"Alberto's, 1219 Forest Ave suite b, Pacific Grove, CA 93950",36.6045242,-121.919955,Restaurant,4.0,24,None,"0x808de1494afb7a29:0x694a0dbebee2c308, 0x808de6ab1a8d6011:0xbd0090e5108f58ac, 0x808de6b772fe790d:0x4d2d64fa0c382424","Takeout, Dine-in, Delivery",Dining Venue,1219 Forest Ave suite b,Pacific Grove,Monterey
176354,0x80e853ef2825140f:0xb6da6722e07c4248,Am Noodle,"Am Noodle, 4744 Telephone Rd, Ventura, CA 93003",34.2594645,-119.2329562,Thai restaurant,4.2,27,Closed ⋅ Opens 11AM,Sin resultados vinculados,"Delivery, Takeout, Dine-in",Dining Venue,4744 Telephone Rd,Ventura,Ventura
176634,0x80c2b4af13ff89bd:0xa8f3c5d09285cb57,Subway,"Subway, 415 N Pacific Coast Hwy Suite 104, Redondo Beach, CA 90277",33.8479252,-118.3885186,"Sandwich shop, Caterer, Fast food restaurant, Takeout Restaurant, Restaurant",3.8,48,Closed ⋅ Opens 7AM,"0x80c2b49e92de1cc7:0x332675574f5e8c6f, 0x80c2b4a17d2d875b:0xff28e373c1dc9830, 0x80c2b49c2db6d3d5:0xf49f920a10678b0c, 0x80c2b5577b4d71df:0x267b9f1cded39673, 0x80dd4b53b8efaed9:0x7422cc33c94c9570","Curbside pickup, Delivery, Takeout, Dine-in",Dining Venue,415 N Pacific Coast Hwy Suite 104,Redondo Beach,Los Angeles
176645,0x80c2bfa7fae4c6f9:0xf6d9c68a62ef3d5f,West Coast Pretzels,"West Coast Pretzels, 7617 Vineland Ave, Sun Valley, CA 91352",34.2089423,-118.3707796,"Pretzel store, Bakery, Fast food restaurant",4.9,28,Closed ⋅ Opens 11AM,"0x80c2b82f175a41e5:0x713bfd5783e93b76, 0x80c2955ab6c953d1:0xdb80f1749cf232b0, 0x80e83a9921321595:0x170dff0d3234a5ee, 0x80c2c00e2ffa852f:0xccef04eaa0a15e2f","Curbside pickup, No-contact delivery, Delivery, In-store pickup, In-store shopping, Same-day delivery",Dining Venue,7617 Vineland Ave,Sun Valley,Los Angeles
176663,0x808e32bd46d0e321:0x4e4288aaef178867,Hu Tieu Nam Vang,"Hu Tieu Nam Vang, 1818 Tully Rd #110, San Jose, CA 95122",37.322105,-121.8232817,Chinese restaurant,3.8,24,Closed ⋅ Opens 8AM,"0x808e329605bea527:0x1b6e1cecbd17f2d3, 0x808e32a35aa41763:0xf436ef9e74acdc88, 0x808fcd1e289d3c1f:0x6bc5a4c310405954, 0x808e2d7dd1fa21c7:0xa3a22fbc81a610dc, 0x808e335c68f963cf:0x5049f20e25c12c96","Delivery, Takeout, Dine-in",Dining Venue,1818 Tully Rd #110,San Jose,Santa Clara
176664,0x808fc71d61bcb7d7:0x6cd30ddf8f1b4c8,Cafe Mei 美而美,"Cafe Mei 美而美, 43761 Boscell Rd #5125, Fremont, CA 94538",37.5001427,-121.9736139,"Breakfast restaurant, Cafe, Lunch restaurant, Taiwanese restaurant",4.2,27,Closed ⋅ Opens 8AM,Sin resultados vinculados,Takeout,Dining Venue,43761 Boscell Rd #5125,Fremont,Alameda
178099,0x80ecf1aff54e5495:0xe42b3fb13a1d3987,What's Cookin',"What's Cookin', 1 Grand Ave Building 171/I6, San Luis Obispo, CA 93407",35.3074081,-120.6588154,Restaurant,3.4,18,Temporarily closed,"0x80ecf1b01ed2e8e3:0xb1853cf7e09926cd, 0x80ecf1b376f78235:0xb73ba0d4e7b78b36, 0x80ecf102f2374fb5:0x38e016f360fc2b69, 0x80ecf102ee19897b:0x7b477cc46a983835, 0x80ecf1025c3bc305:0x92208ef1680928dd","Outdoor seating, Takeout, Dine-in, Delivery",Dining Venue,1 Grand Ave Building 171/I6,San Luis Obispo,San Luis Obispo
178160,0x80c34a1bcec4191f:0x65ec31e841fbd44e,King's Mongolian BBQ,"King's Mongolian BBQ, 12434 S Mainstreet, Rancho Cucamonga, CA 91739",34.1123206,-117.5339179,"Barbecue restaurant, Asian restaurant, Chinese restaurant, Mongolian barbecue restaurant",3.4,26,Closed ⋅ Opens 10AM,"0x80c3358476d0a2b1:0xc6af4490b68ffc5, 0x80c33678a6c8d70d:0x94dba9d22fe77d84, 0x80c34a1a5da4cd09:0xfc1b38c1a45d8a58, 0x80c34a19a6c92475:0xe2283d15b6665373, 0x80c34a1b04b50bcd:0x190c56da56864e9f","Takeout, Dine-in, Delivery",Dining Venue,12434 S Mainstreet,Rancho Cucamonga,San Bernardino
178231,0x808f7fcd9700d9bf:0xbd6776261075b3eb,Oki sushi,"Oki sushi, 1740 Church St, San Francisco, CA 94131",37.7430885,-122.4269034,Restaurant,4.4,34,Closed ⋅ Opens 4:30PM,"0x808f7e128a5c68cf:0x541b14d9df8d94f3, 0x808f7e04ea987a23:0xad00f22b33457b67, 0x80858741d83e96ef:0x1fd3c91528f9369b, 0x808587384a80fd6b:0xc50c5aa2d92f9dc5","Delivery, Takeout, Dine-in",Dining Venue,1740 Church St,San Francisco,San Francisco
178345,0x80dd2daeafbf9383:0x1803e44b1b60a076,Boba Loca,"Boba Loca, 12222 South St, Artesia, CA 90701",33.8579864,-118.071452,"Cafe, Coffee shop, Juice shop",4.7,65,Closed ⋅ Opens 12PM,"0x80dd2d0c2ae5b56d:0x1a46c954eae7f734, 0x80dd2da67b3d8e8f:0xc52e7700f2936959, 0x80dd2b1052355a73:0x4bfc85cb27742fdd, 0x80dd2d0c1df20a47:0x5115953ad89c315f, 0x80dd340964f25a7b:0x562473366109dd22","Takeout, Delivery",Café & Coffee,12222 South St,Artesia,Los Angeles
178734,0x809ac556b7085739:0x55f40ca99d4b441c,Mariscos Los Caracoles,"Mariscos Los Caracoles, 5908 Stockton Blvd, Sacramento, CA 95824",38.5192103,-121.4404932,Seafood restaurant,4.5,28,Closed ⋅ Opens 10AM,"0x809ac5747313cc9d:0xef14b84c1eb90624, 0x809ac59412712593:0xcf35ad647cc9d5d2, 0x809ac56878ec52bf:0x76fd381b6f0921d8, 0x809acfc9cb896f15:0x2a1ce482998a4e2a, 0x809adda243a050cb:0xd6b4f1df654dcc2f","Takeout, Dine-in, Delivery",Dining Venue,5908 Stockton Blvd,Sacramento,Sacramento
178766,0x808573f0627c36f9:0x5da98fe56cc155cd,Korean Mammas Cooking,"Korean Mammas Cooking, 3624 Sonoma Blvd, Vallejo, CA 94590",38.1237995,-122.2538003,Korean restaurant,4.7,28,Closed ⋅ Opens 11AM,Sin resultados vinculados,"Takeout, Dine-in, Delivery",Dining Venue,3624 Sonoma Blvd,Vallejo,Solano
179790,0x808fc7bbe21041b3:0xec74f36aff820d98,STIX Grill & Bar,"STIX Grill & Bar, 40470 Albrae St, Fremont, CA 94538",37.5207096,-121.9880324,Asian restaurant,3.5,38,Open ⋅ Closes 2AM ⋅ Reopens 5PM,Sin resultados vinculados,"Dine-in, Delivery",Dining Venue,40470 Albrae St,Fremont,Alameda
179865,0x80dd26293bec82b3:0xa312b38d9b227c8c,Thach Che My Linh,"Thach Che My Linh, 8548 Westminster Blvd., Westminster, CA 92683",33.7583867,-117.9793901,Cafe,4.3,28,Closed ⋅ Opens 9AM,"0x80dd2724c8e63aab:0x34ecf8d4a6e3c23e, 0x80dd27b79ca0cc1f:0xa4c898aed0e354b6, 0x80dd27be8dd8f82f:0xf5418e9b35a34aef, 0x80dd27dbf26d7d49:0x79b402748ccd5c95","Takeout, Delivery",Café & Coffee,8548 Westminster Blvd.,Westminster,Orange
181397,0x80c35329b54db21d:0xd75aad643358210f,El Paraiso Salvadoreño,"El Paraiso Salvadoreño, 974 Kendall Dr Suite 7-8, San Bernardino, CA 92407",34.1640625,-117.3041915,Restaurant,4.1,68,Closed ⋅ Opens 10AM Wed,Sin resultados vinculados,"Curbside pickup, Takeout, Dine-in, Delivery",Dining Venue,974 Kendall Dr Suite 7-8,San Bernardino,San Bernardino
181521,0x808f9f85e4c7a4eb:0x8887b964cb3ab67,Eats Meets West Bowls,"Eats Meets West Bowls, 1602 El Camino Real Ste A, Belmont, CA 94002",37.514379,-122.269086,Restaurant,4.9,28,Closed ⋅ Opens 11AM Wed,"0x808fa21b751b630d:0xa48bb269d0a2af75, 0x808f9f516a0c0393:0x170b256eabfe1d0b, 0x808fa36cdfdcbc61:0xfb2af3bd1dd09f88, 0x808fa2393cf0df63:0xd3d17d928cc2e2e8","No-contact delivery, Delivery, Takeout, Dine-in",Dining Venue,1602 El Camino Real Ste A,Belmont,San Mateo
181760,0x809ade1bd2f7dbe7:0x540408ea793b8a4b,Max Muscle Nutrition,"Max Muscle Nutrition, 5410 Sunrise Blvd Ste 1, Citrus Heights, CA 95610",38.665564,-121.271729,"Sports nutrition store, Health food store, Vitamin & supplements store, Weight loss service",4.9,58,Closed ⋅ Opens 10AM Wed,"0x809adfe2dfe98b3b:0x2aa36d7751c85c4c, 0x809b1ff05c9f5bff:0xaed971256026ffde","In-store pickup, In-store shopping",Health Foods,5410 Sunrise Blvd Ste 1,Citrus Heights,Sacramento
181977,0x808fc92a27c45307:0x9ec173a288276e76,Thien Huong Restaurant,"Thien Huong Restaurant, 41 Serra Way, Milpitas, CA 95035",37.4284124,-121.9073643,Vietnamese restaurant,4.0,14,Closed ⋅ Opens 10AM Wed,"0x808fc92a27d400d9:0x847075882a7530b7, 0x808fc928454cfbdf:0x7c612cdc98b4bc63, 0x808fc929e8ae3a71:0xeacf0a96eef12c0, 0x808fc924e1f50085:0x2980442d99be8f4b, 0x808fcc1081a0f43f:0x3b34613f0b3efcd7","Takeout, Dine-in, Delivery",Dining Venue,41 Serra Way,Milpitas,Santa Clara
182556,0x808f817a95636efb:0xc2cc22f1b81f6e12,Naan n Curry,"Naan n Curry, 1615 Clay St, Oakland, CA 94612",37.8069761,-122.2728546,Indian restaurant,2.9,44,Closes soon ⋅ 10PM ⋅ Opens 11AM Wed,Sin resultados vinculados,"Delivery, Takeout, Dine-in",Dining Venue,1615 Clay St,Oakland,Alameda
182565,0x80dcdc7bd18ff3c7:0x349a937af99f608a,The Vitamin Shoppe,"The Vitamin Shoppe, 13662 Jamboree Rd Suite B, Irvine, CA 92602",33.721232,-117.7927195,"Vitamin & supplements store, Health food store, Natural goods store",4.2,15,Closed ⋅ Opens 10AM Wed,"0x80dcdbd4a62e173d:0x593a678c614b3665, 0x80dcdcf55ca53edf:0x2123cb3445965102, 0x80dce8f730b70ee7:0xba6eadca657234ac, 0x80dce8075784d2c3:0x27c6b42d034e4ef8","Curbside pickup, Delivery, In-store pickup, In-store shopping",Health Foods,13662 Jamboree Rd Suite B,Irvine,Orange
183435,0x80843907455a1433:0xefa3819e01f538fe,May Garden,"May Garden, 1425 Fulton Rd #325, Santa Rosa, CA 95401",38.4548364,-122.7704915,Chinese restaurant,3.7,48,Closed ⋅ Opens 12PM Wed,"0x80843821bec3579d:0x2107f14ceee810b2, 0x808438f7ed0f050d:0xc87bb2507adb5d07, 0x808439aee4793595:0xbf3dfa9fdaea30dd, 0x80843837fd8ffc59:0xfa969eb33fab5685, 0x808438f64b6acf39:0x5099f4e410601845","No-contact delivery, Delivery, Takeout, Dine-in",Dining Venue,1425 Fulton Rd #325,Santa Rosa,Sonoma
183553,0x80c2d76f78f486db:0xade65b33d5c9c995,Estrella Market & Liquor,"Estrella Market & Liquor, 13100 Ramona Blvd, Baldwin Park, CA 91706",34.0799909,-117.9865041,"Liquor store, Meat products, Produce market, Taco restaurant",4.3,48,Open ⋅ Closes 10:30PM,"0x80c2d777f24664b1:0xc9be22192b789376, 0x80c2d76809445e05:0x864904adad3ea7e, 0x80c2d70b5a2ecabf:0x2ea513b456d3a95d, 0x80c2d77087d846cf:0x134fc253b63d40b2, 0x80c2d7908c501935:0x2630e89be0229450","Delivery, In-store pickup, In-store shopping",Dining Venue,13100 Ramona Blvd,Baldwin Park,Los Angeles
184419,0x8085809a1481c9d9:0x93acc2cce0c8ec11,CoffeeSmith,"CoffeeSmith, 401 Golden Gate Ave, San Francisco, CA 94102",37.7813242,-122.4173188,Coffee shop,4.8,28,Closed ⋅ Opens 7:30AM Wed,"0x8085809a6b35bc1f:0xbe3edb08ff327648, 0x80858091bc0e5d87:0x90138f42dddaf5dc, 0x8085809a1b71c355:0xc2d77b4971cba23","Takeout, Dine-in, Delivery",Café & Coffee,401 Golden Gate Ave,San Francisco,San Francisco
185614,0x80dcd83ab4db8089:0x5181fb2b55be0adc,Choco-Latte,"Choco-Latte, 840 The City Dr S # J, Orange, CA 92868",33.7747777,-117.8912622,"Cafe, Coffee shop",4.4,28,Temporarily closed,"0x80dcd9d0390f3f83:0xef12326e25244918, 0x80dcd9febb1c9135:0x3061972215094afd, 0x80dcd78fff9f0b01:0x461f5fcab05dbf2e, 0x80dcd788877a9159:0xbcc91da625c28c56, 0x80dcd7dd0b925a37:0x480ddb1435073c98","Outdoor seating, Delivery, Takeout",Café & Coffee,840 The City Dr S # J,Orange,Orange
186030,0x80c2db96bf9a8d3b:0x3abe1e05add8cbf9,Oops Boba Tea & Coffee,"Oops Boba Tea & Coffee, 411 E Huntington Dr #110, Arcadia, CA 91006",34.1407806,-118.0216149,Coffee shop,4.8,28,Open ⋅ Closes 8PM,Sin resultados vinculados,"Delivery, Takeout, Dine-in",Café & Coffee,411 E Huntington Dr #110,Arcadia,Los Angeles
187168,0x80dcd5bc3c01a10d:0xdcd0225967822c6d,Susie's Freeze,"Susie's Freeze, 131 W Chapman Ave, Placentia, CA 92870",33.87262,-117.8712161,Restaurant,4.8,58,Open ⋅ Closes 8PM,"0x80dcd5bc3c01a10d:0xdcd0225967822c6d, 0x80dcd42ac3cd0a75:0xb5040f00a699a8dd","Takeout, Dine-in, Delivery",Dining Venue,131 W Chapman Ave,Placentia,Orange
187302,0x80dd27b50d43b4a1:0xd11d03459049e6eb,Final Touch Bakery,"Final Touch Bakery, 15056 Weststate St, Westminster, CA 92683",33.7440164,-117.9691964,Bakery,4.5,28,Closed ⋅ Opens 9AM Wed,"0x80dd27b7acdf16f5:0xb3a1a83539509b1c, 0x80dd26356157d28b:0x1e3c5813b8dbdd23, 0x80dd283dca7a59e1:0x6fc3edd4c3463e9c, 0x80dd262c84ddd7eb:0x985dff5c1a0fdabd, 0x80dd27b59abaf3cd:0x7da19798a401d515","In-store pickup, Takeout, Delivery, Dine-in",Bakery Shop,15056 Weststate St,Westminster,Orange
188278,0x80c2c0560fdb2f5f:0x54be46549aede504,Häagen-Dazs,"Häagen-Dazs, 1113 Galleria Way, Glendale, CA 91210",34.1456189,-118.2588238,"Ice cream shop, Restaurant",4.2,58,Open ⋅ Closes 7PM,"0x80c2c04f708686d7:0xfc72cb153a8049bd, 0x80c2c0f8b87ebc09:0x8df365f336855ca2, 0x80c2c12c1b6aba3d:0x80136f549a30de23, 0x80c2c0e382bb88b9:0x229f37e5fbc6d615","Delivery, In-store pickup, In-store shopping, Takeout, Dine-in",Dining Venue,1113 Galleria Way,Glendale,Los Angeles
188682,0x80db13eac056ebd9:0x859327ac66c19926,Idyology,"Idyology, 54905 N Circle Dr, Idyllwild-Pine Cove, CA 92549",33.7525129,-116.7064038,"Restaurant, Californian restaurant, Catering food and drink supplier",4.2,246,Closed ⋅ Opens 5PM Thu,"0x80db120ff5d7daf7:0x37922d1f9ae829bd, 0x80db12059faec8cf:0x3a81dee8b7476c92, 0x80db121ad3e73baf:0x1c3348bc9b408c97, 0x80db12055e401a79:0x65afe72b0dc6cb79, 0x80db121c81533dd3:0xf8386d758866c0ca","Outdoor seating, Curbside pickup, Takeout, Dine-in, Delivery",Dining Venue,54905 N Circle Dr,Idyllwild-Pine Cove,Riverside
188931,0x80c32b10e49a672f:0x46288086505cc6f3,Tacos Los Potrillos,"Tacos Los Potrillos, 19050 La Puente Rd, West Covina, CA 91792",34.0089613,-117.885968,Taco restaurant,4.6,18,Closed ⋅ Opens 5PM,Sin resultados vinculados,"Takeout, Dine-in, Delivery",Dining Venue,19050 La Puente Rd,West Covina,Los Angeles
189038,0x80c297a3288f0a23:0x3553505252f054f3,LETTUCE FEAST,"LETTUCE FEAST, 5301 Tujunga Ave, North Hollywood, CA 91006",34.1671342,-118.3790921,Restaurant,4.0,56,Open ⋅ Closes 8PM,"0x80c2c71674a3ffff:0xda21d3dd8791175f, 0x80c2bdf4e767e0ad:0x60b1d0a5f92d7709, 0x80c297f807cde753:0x1ea0b9f5737a9bda","Delivery, Takeout",Dining Venue,5301 Tujunga Ave,North Hollywood,Los Angeles
189658,0x80c2b90d1e37b011:0x337c76a6f24e0872,Five Guys,"Five Guys, 4737 Venice Blvd., Los Angeles, CA 90019",34.0470916,-118.340308,Restaurant,3.5,28,Open ⋅ Closes 10PM,Sin resultados vinculados,"No-contact delivery, Delivery, Takeout, Dine-in",Dining Venue,4737 Venice Blvd.,Los Angeles,Los Angeles
190058,0x80c35336c9dbb233:0x8648a7121862ad0f,Dino’s Pizza Wings Subs,"Dino’s Pizza Wings Subs, 685 W Base Line St unit i, San Bernardino, CA 92410",34.1205148,-117.2978069,Restaurant,4.6,98,Open ⋅ Closes 9:30PM,"0x80c3530b758d0acb:0x18c19ffa42e6a9d4, 0x80c353ee894349af:0x18a15f59652bd356, 0x80c35367cb4abfef:0xddf3c4825b46a0a3, 0x80c3539dfdd9bcf1:0xa9fb577c05f73095, 0x80c35484617cad09:0x1fcfba05ec9620e","Delivery, Takeout",Dining Venue,685 W Base Line St unit i,San Bernardino,San Bernardino
191067,0x80855e18b58b1f5f:0x6f3dda8558b90487,Zenith Food Mart (Afghan - Mediterranean Halal),"Zenith Food Mart (Afghan - Mediterranean Halal), 4530 Clayton Rd Suite B, Concord, CA 94521",37.9623798,-121.9871747,"Grocery store, Bakery, Butcher shop, Pizza restaurant",4.8,47,Open ⋅ Closes 9PM,"0x808561283446807f:0x8ffbc637c7c07e37, 0x80855e22cd37cdff:0x2035b6078842eb7c, 0x808561261b31c605:0x7cc6626a00ccee80, 0x808560b4e7c22e71:0xe77bbe36d74cb4f0, 0x808561283455f34b:0x2d6ca4904e56a31a",In-store shopping,Dining Venue,4530 Clayton Rd Suite B,Concord,Contra Costa
191069,0x80e9f6033ac49d91:0xec2f7ef3da355ecf,Juicy Burger,"Juicy Burger, 5701 Outlets at Tejon Pkwy, Arvin, CA 93203",34.985676,-118.9418907,Hamburger restaurant,3.5,17,Open ⋅ Closes 8PM,"0x80e9f602f26e8029:0xeadd2fea3f52b0fc, 0x80ea1df824598567:0x84dc827730fc0faf, 0x80e9f60194b54aed:0x72e8393c89fad79f, 0x80e9f61d59a57795:0xcf00c26f8c4dd541","Takeout, Dine-in, Delivery",Dining Venue,5701 Outlets at Tejon Pkwy,Arvin,Kern
191158,0x80dcb0e610017071:0x6f9fff2838aaaa48,Wanda's,"Wanda's, 8432 Magnolia Ave, Riverside, CA 92504",33.9293667,-117.42705,Cafe,4.5,28,Open ⋅ Closes 10PM,"0x80dcb0e603b4940b:0x5352b4b8eda48e5e, 0x80dcb1ef0a44b47b:0x48316704ec76a42a, 0x80dcb1233a004f45:0x18364eec55d4d3c9, 0x80dcb1e565cccc4d:0x3108768d864164b8, 0x80dcb1b205233617:0x24b99c2c992fb04a","Outdoor seating, Takeout, Dine-in, Delivery",Café & Coffee,8432 Magnolia Ave,Riverside,Riverside
191411,0x80e84e827b7899d3:0xc89af738f6349227,Downtown Express,"Downtown Express, 512 S Oxnard Blvd, Oxnard, CA 93030",34.1974396,-119.1771193,Restaurant,4.1,28,Closed ⋅ Opens 11:30AM Wed,"0x80e84ef09d94cc09:0x1773c2c2a02c98ff, 0x80e84e83ae7661fb:0x201baf2df8bb153b, 0x80e84dc8d91036a1:0x990b8c7c23b56bd1, 0x80e84c3649d5700f:0x6095dd8411bfc676, 0x80e84dd7250c7841:0x8551c30d1018dc8e","Takeout, Dine-in, Delivery",Dining Venue,512 S Oxnard Blvd,Oxnard,Ventura
192060,0x80c34be682740a43:0x9b75ca8d0158887b,Ori Sushi Robata Bar,"Ori Sushi Robata Bar, 12780 Foothill Blvd, Rancho Cucamonga, CA 91739",34.1077855,-117.5262401,Authentic Japanese restaurant,3.8,36,Closed ⋅ Opens 5PM,Sin resultados vinculados,"Delivery, Takeout, Dine-in",Dining Venue,12780 Foothill Blvd,Rancho Cucamonga,San Bernardino
192870,0x80c296c217631b49:0x2e120a91b259b871,El Tortillazo Mexican food,"El Tortillazo Mexican food, 13305 Saticoy St, North Hollywood, CA 91605",34.2086104,-118.4225404,Mexican restaurant,4.3,36,Open ⋅ Closes 6PM,"0x80c296c251bda659:0x67d9debeef1be9b9, 0x80c29a1d9a43793f:0xb74a70f3321d48eb, 0x80c2969c30ecfccf:0x93dd2d8cc00fe038, 0x80c296e8a610bee7:0x6e83efa8a616ec82","Takeout, Dine-in, Delivery",Dining Venue,13305 Saticoy St,North Hollywood,Los Angeles
194413,0x80c2baea251dfc07:0xdc909d718b288837,WenDy's Donuts,"WenDy's Donuts, 942-998 California Ave, Venice, CA 90291",33.9976459,-118.4610674,Cafe,4.6,18,Open ⋅ Closes 5PM,"0x80c2ba8e94403537:0x2b4042f686794818, 0x80c2bac751479a01:0xdd030069fc855830, 0x80c2ba8a2d9787f9:0x2f68cf12e6ec1b93, 0x80c2ba1a57514d63:0xbeadcab9b96e79c6","Takeout, Dine-in, Delivery",Café & Coffee,942-998 California Ave,Venice,Los Angeles
195038,0x80c2cf3f3cf9255f:0x9015513fd44ec5e7,Antojitos Denises,"Antojitos Denises, 4060 E Olympic Blvd, Los Angeles, CA 90023",34.0187333,-118.1871088,Mexican restaurant,4.7,25,Open ⋅ Closes 7PM,"0x80c2cf38b9e309af:0x6030477456877dd5, 0x80c2cf3f3cde5ef1:0x861fe77cdae4623e, 0x80c2cf4032ebccfb:0x51f8c61bf48f6865, 0x80c2c605f389a201:0x5c54a69685ce936e, 0x80c2cfa76e8ecac3:0x94c93b0a67ef015a","Takeout, Dine-in, Delivery",Dining Venue,4060 E Olympic Blvd,Los Angeles,Los Angeles
195366,0x80859a49ddf2868b:0x28f486d749d15911,Nova Rosti Coffee Co.,"Nova Rosti Coffee Co., 3095 Kerner Blvd, San Rafael, CA 94901",37.9567627,-122.4997117,Cafe,4.5,36,Open ⋅ Closes 4PM,"0x808599fbaed19b9b:0x47685ffd7ebd65de, 0x808599fa534efc49:0x827682c17096ac16, 0x808599f6d91ce395:0x6687d62330d3153d, 0x80859bc522476e03:0x5179f3ff22acda80, 0x808599fb64c7ed6d:0x7feaedbe4982fe67","Outdoor seating, Takeout, Delivery",Café & Coffee,3095 Kerner Blvd,San Rafael,Marin
195941,0x80c2876148b49f4f:0xf3b640b3df89dade,Incredibowls Acai Bowls & Blends,"Incredibowls Acai Bowls & Blends, 24208 Valencia Blvd #202, Santa Clarita, CA 91355",34.4118859,-118.5579348,Health food restaurant,4.4,38,Opens soon ⋅ 9:30AM,"0x80c2876148b49f4f:0xf3b640b3df89dade, 0x80c2874116da740b:0x63c1e67e6b46b1b9, 0x80c28746a6e1c85b:0xe1f3576e16610b04, 0x80c27d60bf779049:0x18f6cde2a84de15a, 0x80c27dfc9a17e8c9:0x8fc8c1d165b1b98a","Delivery, Takeout, Dine-in",Dining Venue,24208 Valencia Blvd #202,Santa Clarita,Los Angeles
196839,0x808fe7be032f64b1:0x4b8320ae7f4246fe,Hanabishi Japanese Cuisine,"Hanabishi Japanese Cuisine, 979 E Stanley Blvd, Livermore, CA 94550",37.6777417,-121.7847278,"Japanese restaurant, Restaurant",4.5,58,Closed ⋅ Opens 12PM,"0x808fe79efc60d3c1:0xbb5ea044ca0b1a52, 0x808fe79f6bf80d59:0x4df91ce10041418c, 0x808fe73d8a19bb01:0xb7093ae9b325a7c1, 0x808fe7d26aa9ae1f:0xe413f304e520249d","Takeout, Dine-in, Delivery",Dining Venue,979 E Stanley Blvd,Livermore,Alameda
196930,0x80c335162c67d8a9:0x7d2ffa7bcd87bf82,Umai Savory Hot Dogs,"Umai Savory Hot Dogs, 8443 Haven Ave #183, Rancho Cucamonga, CA 91730",34.10028,-117.573981,"Hot dog restaurant, American restaurant, Chicken wings restaurant, Fusion restaurant, Hamburger restaurant, Restaurant",4.8,108,Closed ⋅ Opens 11AM,Sin resultados vinculados,"Delivery, Takeout",Dining Venue,8443 Haven Ave #183,Rancho Cucamonga,San Bernardino
197213,0x80ea6bec53d4b4d1:0xcb764d4621d5b323,El Abuelo #2,"El Abuelo #2, 1120 Mount Vernon Ave, Bakersfield, CA 93307",35.3679408,-118.967864,Mexican restaurant,4.1,27,Closed ⋅ Opens 10AM,"0x80ea6bbc572003cd:0xefaf61b114856b39, 0x80ea6be57b3038bf:0x7ed61f382e2f8e4e, 0x80ea6be3824abd57:0x2fa2e4c8f9e4263c, 0x80ea6a2a8ad58c2f:0xd6ed9f09dc278bcd, 0x80ea6bec16b013ef:0x62e6e317f1d21fd4","Takeout, Dine-in, Delivery",Dining Venue,1120 Mount Vernon Ave,Bakersfield,Kern
197242,0x80d94e9d1efb1e87:0xa8535e34b52e5e96,Mexipino Craft,"Mexipino Craft, 1660 Broadway #14, Chula Vista, CA 91911",32.5967963,-117.0767497,"Restaurant, Breakfast restaurant, Filipino restaurant, Mexican restaurant, Pancake restaurant",4.5,175,Open ⋅ Closes 3PM,"0x80d94e9d1efb1e87:0xa8535e34b52e5e96, 0x80d94f30a79140eb:0x7ad9a39021252dcd, 0x80d94ddd90ce393d:0x8be1d8c5b068697b, 0x80d94e2a9e683b55:0x6b84de3b85581265","Delivery, Takeout, Dine-in",Dining Venue,1660 Broadway #14,Chula Vista,San Diego
197794,0x80c2c0fda4e0bde3:0x1dd3d52636cb4d52,Fresco Ristorante,"Fresco Ristorante, 514 S Brand Blvd, Glendale, CA 91204",34.140014,-118.254655,Italian restaurant,4.3,48,Closed ⋅ Opens 11:30AM,"0x80c2c05587ac2b1f:0x4ece107a124c530c, 0x80c2c0ff28bfc71b:0x4029fc992a8f25a2, 0x80c2c04c7deec9f5:0x7b1eb3da309d942c, 0x80c2c019c146c837:0x6401cc8e61638208, 0x80c2c054fe0f2857:0xbb385cc2d4d90e9a","Takeout, Dine-in, Delivery",Dining Venue,514 S Brand Blvd,Glendale,Los Angeles
198291,0x808f9e4cb7e27b6d:0x4f403e633209ea65,Starbucks,"Starbucks, 1218 W Hillsdale Blvd, San Mateo, CA 94403",37.534018,-122.326154,"Coffee shop, Cafe, Coffee store, Espresso bar",3.7,28,None,"0x808f9ee1c28be7cf:0xb64ccec0bdfc61b3, 0x808f9ee1c446572f:0x9837d9962803c694, 0x808f9ef959c5f257:0xdb1841c8ff165605, 0x808f9f6b7ed01cfd:0xb1806e603b282f1e","Takeout, Delivery",Café & Coffee,1218 W Hillsdale Blvd,San Mateo,San Mateo
198422,0x80c28717d667e36b:0x22b2b31b9d0014ae,Guanatos Tacos,"Guanatos Tacos, 21525 Soledad Canyon Rd, Santa Clarita, CA 91350",34.4167272,-118.5129218,Restaurant,3.9,38,Closed ⋅ Opens 10AM,Sin resultados vinculados,"No-contact delivery, Delivery, Takeout, Dine-in",Dining Venue,21525 Soledad Canyon Rd,Santa Clarita,Los Angeles
198876,0x80dcd80b68bcd7c1:0x595e516c978318ea,Bani Bakery,"Bani Bakery, 3710, e, Westminster Ave, Santa Ana, CA 92703",33.7591658,-117.9198223,Bakery,4.7,33,Closed ⋅ Opens 10AM Wed,"0x80dcd986705700bf:0x272a6af9c2ca6fda, 0x80dcd893b6f16a95:0xaffa075ee9e2d912, 0x80dcd8068d78f87d:0x866a5d4297aa4226, 0x80dd27b7acdf16f5:0xb3a1a83539509b1c, 0x80dcd906fd94f665:0xaf49e358ab517023","Delivery, In-store pickup, In-store shopping, Takeout, Same-day delivery",Bakery Shop,"3710, e, Westminster Ave",Santa Ana,Orange
199152,0x809041ba34418b29:0xc19f095cd8dbde54,The Local Steak House & Lounge,"The Local Steak House & Lounge, 1124 W Yosemite Ave, Manteca, CA 95337",37.7971637,-121.2332597,American restaurant,4.2,16,Closed ⋅ Opens 3:30PM,Sin resultados vinculados,"Takeout, Dine-in",Dining Venue,1124 W Yosemite Ave,Manteca,San Joaquin
199727,0x808fc157b0c962df:0xaefe7abe89366155,Ephie Ethiopian Kitchen,"Ephie Ethiopian Kitchen, 488 Mowry Ave, Fremont, CA 94536",37.567482,-121.97215,Ethiopian restaurant,4.7,33,Closed ⋅ Opens 12PM,Sin resultados vinculados,"Curbside pickup, No-contact delivery, Delivery, Takeout, Dine-in",Dining Venue,488 Mowry Ave,Fremont,Alameda
200162,0x80ecc2d854466c75:0x63fffa1c8da9f8fb,Shell,"Shell, 2000 El Camino Real, Atascadero, CA 93422",35.5133464,-120.6978731,"Gas station, Alternative fuel station, ATM, Convenience store, Electric vehicle charging station, Restaurant",3.0,25,Open 24 hours,"0x80ece9bc70c42b31:0xbd7ceaaae411f63c, 0x80ecc29474cdfac3:0x906597411adc14b0, 0x80ece9d54f69ef2b:0xcbfbfe9404d6158a, 0x80ecc293f15bdd05:0x5eb112ddbf8940f2, 0x80ecc2930d9303d5:0xdaeb31a1e60db10e",Sin dato,Dining Venue,2000 El Camino Real,Atascadero,San Luis Obispo
200527,0x808f9ffeb26de3c1:0x6e79f2c5564b43bc,Deja Vu Organic Juice Bar,"Deja Vu Organic Juice Bar, 314 S B St, San Mateo, CA 94401",37.565258,-122.3223006,"Juice shop, Organic restaurant, Salad shop",4.7,17,Closed ⋅ Opens 8AM,Sin resultados vinculados,"No-contact delivery, Delivery, Takeout, Dine-in",Dining Venue,314 S B St,San Mateo,San Mateo
202701,0x808fcce0e0dd5877:0xfe0d02c20aa9742,Sweet Passions Bakery,"Sweet Passions Bakery, 1512 Alum Rock Ave, San Jose, CA 95116",37.350273,-121.860332,Bakery,3.5,36,Closed ⋅ Opens 10AM,"0x808e34a9ee3f8bf5:0x78e2cde73de7c7a2, 0x808e32bd1a846f65:0x7c0e69a873ffba79, 0x808e316ca8bb7fa1:0x34a5ea4e82681993, 0x808e356f486e5a85:0x31f1525057a7639d","In-store pickup, In-store shopping, Takeout, Delivery, Dine-in",Bakery Shop,1512 Alum Rock Ave,San Jose,Santa Clara
202703,0x808e33737ef4569d:0xbf15f7972a86888a,Cantina California,"Cantina California, 925 Blossom Hill Rd, San Jose, CA 95123",37.251454,-121.8622321,Mexican restaurant,4.5,15,Closed ⋅ Opens 11AM,Sin resultados vinculados,"Delivery, Takeout, Dine-in",Dining Venue,925 Blossom Hill Rd,San Jose,Santa Clara
